{
  "type": "FeatureCollection",
  "features": [
    {"type":"Feature","properties":{"name":"New Horton","objectid":"3077116","urn":"1","min_occr_url":"http://dnr-mrn.gnb.ca/MineralOccurrence/default.aspx?componentID=5&urn=1","lon":"-64.71302","commodities":"Ag, Cu","lat":"45.6861"},"geometry":{"type":"Point","coordinates":[-64.71301848808386,45.686109388440805]}},{"type":"Feature","properties":{"name":"Quaco Head Manganese &quot;I&quot;","objectid":"3077117","urn":"2","min_occr_url":"http://dnr-mrn.gnb.ca/MineralOccurrence/default.aspx?componentID=5&urn=2","lon":"-65.53802","commodities":"Mn","lat":"45.326389999999996"},"geometry":{"type":"Point","coordinates":[-65.53801875840895,45.326399330097466]}},{"type":"Feature","properties":{"name":"Big Salmon River","objectid":"3077118","urn":"3","min_occr_url":"http://dnr-mrn.gnb.ca/MineralOccurrence/default.aspx?componentID=5&urn=3","lon":"-65.4021858","commodities":"Au","lat":"45.4194725"},"geometry":{"type":"Point","coordinates":[-65.40218447427975,45.41948188208376]}},{"type":"Feature","properties":{"name":"Quispamsis","objectid":"3077119","urn":"4","min_occr_url":"http://dnr-mrn.gnb.ca/MineralOccurrence/default.aspx?componentID=5&urn=4","lon":"-65.95801999999999","commodities":"Ag, Au, Cu, Pb, Zn","lat":"45.42361"},"geometry":{"type":"Point","coordinates":[-65.95801881051779,45.4236193945397]}},{"type":"Feature","properties":{"name":"Armstrong Brook","objectid":"3077120","urn":"5","min_occr_url":"http://dnr-mrn.gnb.ca/MineralOccurrence/default.aspx?componentID=5&urn=5","lon":"-65.83636","commodities":"Au","lat":"45.2575"},"geometry":{"type":"Point","coordinates":[-65.83635883655886,45.25750937327645]}},{"type":"Feature","properties":{"name":"Lake George Tungsten","objectid":"3077121","urn":"6","min_occr_url":"http://dnr-mrn.gnb.ca/MineralOccurrence/default.aspx?componentID=5&urn=6","lon":"-67.04081","commodities":"W","lat":"45.862500000000004"},"geometry":{"type":"Point","coordinates":[-67.04080925646204,45.86250942486406]}},{"type":"Feature","properties":{"name":"Lake George Antimony","objectid":"3077122","urn":"7","min_occr_url":"http://dnr-mrn.gnb.ca/MineralOccurrence/default.aspx?componentID=5&urn=7","lon":"-67.03524","commodities":"Au, Sb","lat":"45.84943"},"geometry":{"type":"Point","coordinates":[-67.03523921689246,45.849439437515656]}},{"type":"Feature","properties":{"name":"Shin Creek","objectid":"3077123","urn":"8","min_occr_url":"http://dnr-mrn.gnb.ca/MineralOccurrence/default.aspx?componentID=5&urn=8","lon":"-66.63358","commodities":"Ag, Mo, W","lat":"45.552229999999994"},"geometry":{"type":"Point","coordinates":[-66.63357914057418,45.552239373161946]}},{"type":"Feature","properties":{"name":"Sinclair Hill","objectid":"3077124","urn":"9","min_occr_url":"http://dnr-mrn.gnb.ca/MineralOccurrence/default.aspx?componentID=5&urn=9","lon":"-64.92275","commodities":"Ag, Au, Cu","lat":"45.631119999999996"},"geometry":{"type":"Point","coordinates":[-64.92274850958854,45.63112943556687]}},{"type":"Feature","properties":{"name":"Pender Brook","objectid":"3077125","urn":"10","min_occr_url":"http://dnr-mrn.gnb.ca/MineralOccurrence/default.aspx?componentID=5&urn=10","lon":"-66.30664","commodities":"Sb","lat":"45.578869999999995"},"geometry":{"type":"Point","coordinates":[-66.306638936827,45.57887937956074]}},{"type":"Feature","properties":{"name":"Evandale Stock *","objectid":"3077126","urn":"11","min_occr_url":"http://dnr-mrn.gnb.ca/MineralOccurrence/default.aspx?componentID=5&urn=11","lon":"-66.09691","commodities":"Ag, Au, Cu","lat":"45.585"},"geometry":{"type":"Point","coordinates":[-66.09690897688904,45.58500941335685]}},{"type":"Feature","properties":{"name":"Johnson Croft","objectid":"3077127","urn":"12","min_occr_url":"http://dnr-mrn.gnb.ca/MineralOccurrence/default.aspx?componentID=5&urn=12","lon":"-66.15829","commodities":"Ag, Cu, Pb, Zn","lat":"45.49221"},"geometry":{"type":"Point","coordinates":[-66.15828893996785,45.49221932690108]}},{"type":"Feature","properties":{"name":"Shaft","objectid":"3077128","urn":"13","min_occr_url":"http://dnr-mrn.gnb.ca/MineralOccurrence/default.aspx?componentID=5&urn=13","lon":"-65.91105","commodities":"Ag, Pb, Zn","lat":"47.67265"},"geometry":{"type":"Point","coordinates":[-65.91104891346058,47.672659708633795]}},{"type":"Feature","properties":{"name":"Key Anacon","objectid":"3077129","urn":"14","min_occr_url":"http://dnr-mrn.gnb.ca/MineralOccurrence/default.aspx?componentID=5&urn=14","lon":"-65.69774","commodities":"Pb, Zn","lat":"47.435539999999996"},"geometry":{"type":"Point","coordinates":[-65.6977388342297,47.435549746706585]}},{"type":"Feature","properties":{"name":"Madran","objectid":"3077130","urn":"15","min_occr_url":"http://dnr-mrn.gnb.ca/MineralOccurrence/default.aspx?componentID=5&urn=15","lon":"-65.85135","commodities":"Ag, Cu, Zn","lat":"47.790009999999995"},"geometry":{"type":"Point","coordinates":[-65.85134897122464,47.790019758712376]}},{"type":"Feature","properties":{"name":"Turgeon","objectid":"3077131","urn":"16","min_occr_url":"http://dnr-mrn.gnb.ca/MineralOccurrence/default.aspx?componentID=5&urn=16","lon":"-65.8788","commodities":"Cu, Zn","lat":"47.87582"},"geometry":{"type":"Point","coordinates":[-65.8787989484066,47.87582978625515]}},{"type":"Feature","properties":{"name":"Upper New River &quot;I&quot;","objectid":"3077132","urn":"17","min_occr_url":"http://dnr-mrn.gnb.ca/MineralOccurrence/default.aspx?componentID=5&urn=17","lon":"-66.6452461","commodities":"Mo","lat":"45.2980811"},"geometry":{"type":"Point","coordinates":[-66.64524516287263,45.29809045908684]}},{"type":"Feature","properties":{"name":"Disappointment Lake *","objectid":"3077133","urn":"18","min_occr_url":"http://dnr-mrn.gnb.ca/MineralOccurrence/default.aspx?componentID=5&urn=18","lon":"-66.58385","commodities":"F, Sn","lat":"45.35472"},"geometry":{"type":"Point","coordinates":[-66.58384905987973,45.35472936166654]}},{"type":"Feature","properties":{"name":"Wheal Louisiana Mine *","objectid":"3077134","urn":"19","min_occr_url":"http://dnr-mrn.gnb.ca/MineralOccurrence/default.aspx?componentID=5&urn=19","lon":"-66.88053","commodities":"Co, Cu, Ni","lat":"45.05749"},"geometry":{"type":"Point","coordinates":[-66.88052911709602,45.057499271840285]}},{"type":"Feature","properties":{"name":"Jake Lee Brook","objectid":"3077135","urn":"20","min_occr_url":"http://dnr-mrn.gnb.ca/MineralOccurrence/default.aspx?componentID=5&urn=20","lon":"-66.63553","commodities":"Zn","lat":"45.22444"},"geometry":{"type":"Point","coordinates":[-66.63552915625958,45.224449260765105]}},{"type":"Feature","properties":{"name":"Maliseet North","objectid":"3077136","urn":"21","min_occr_url":"http://dnr-mrn.gnb.ca/MineralOccurrence/default.aspx?componentID=5&urn=21","lon":"-66.39274999999999","commodities":"Cu, Ni","lat":"47.27887"},"geometry":{"type":"Point","coordinates":[-66.39274917691853,47.27887969887865]}},{"type":"Feature","properties":{"name":"Maliseet South","objectid":"3077137","urn":"22","min_occr_url":"http://dnr-mrn.gnb.ca/MineralOccurrence/default.aspx?componentID=5&urn=22","lon":"-66.39162999999999","commodities":"Cu, Ni","lat":"47.27444"},"geometry":{"type":"Point","coordinates":[-66.39162910929228,47.27444963759118]}},{"type":"Feature","properties":{"name":"Maliseet South Zinc","objectid":"3077138","urn":"23","min_occr_url":"http://dnr-mrn.gnb.ca/MineralOccurrence/default.aspx?componentID=5&urn=23","lon":"-66.39108","commodities":"Cu, Zn","lat":"47.27446"},"geometry":{"type":"Point","coordinates":[-66.3910791256072,47.27446962831845]}},{"type":"Feature","properties":{"name":"Maliseet East","objectid":"3077139","urn":"24","min_occr_url":"http://dnr-mrn.gnb.ca/MineralOccurrence/default.aspx?componentID=5&urn=24","lon":"-66.37831","commodities":"Cu, Ni","lat":"47.27027"},"geometry":{"type":"Point","coordinates":[-66.3783091332721,47.27027970318608]}},{"type":"Feature","properties":{"name":"Jack Lake North","objectid":"3077140","urn":"25","min_occr_url":"http://dnr-mrn.gnb.ca/MineralOccurrence/default.aspx?componentID=5&urn=25","lon":"-65.83247","commodities":"Cu, Zn","lat":"45.749179999999996"},"geometry":{"type":"Point","coordinates":[-65.83246880338265,45.74918938393696]}},{"type":"Feature","properties":{"name":"Wards Creek *","objectid":"3077141","urn":"26","min_occr_url":"http://dnr-mrn.gnb.ca/MineralOccurrence/default.aspx?componentID=5&urn=26","lon":"-65.54663","commodities":"P, U","lat":"45.64443"},"geometry":{"type":"Point","coordinates":[-65.54662879553014,45.64443939035217]}},{"type":"Feature","properties":{"name":"Peekaboo Corner *","objectid":"3077142","urn":"27","min_occr_url":"http://dnr-mrn.gnb.ca/MineralOccurrence/default.aspx?componentID=5&urn=27","lon":"-65.71941","commodities":"Cu, Pb, Zn","lat":"45.65472"},"geometry":{"type":"Point","coordinates":[-65.71940875895365,45.65472942976585]}},{"type":"Feature","properties":{"name":"Cedar Camp","objectid":"3077143","urn":"28","min_occr_url":"http://dnr-mrn.gnb.ca/MineralOccurrence/default.aspx?componentID=5&urn=28","lon":"-65.33024999999999","commodities":"Pb, Zn","lat":"45.71304"},"geometry":{"type":"Point","coordinates":[-65.330248655891,45.71304943264369]}},{"type":"Feature","properties":{"name":"Goose Creek - Gordon *","objectid":"3077144","urn":"29","min_occr_url":"http://dnr-mrn.gnb.ca/MineralOccurrence/default.aspx?componentID=5&urn=29","lon":"-65.18608","commodities":"Cu, Zn","lat":"45.575829999999996"},"geometry":{"type":"Point","coordinates":[-65.18607863192098,45.57583941211615]}},{"type":"Feature","properties":{"name":"Teahan Mine","objectid":"3077145","urn":"30","min_occr_url":"http://dnr-mrn.gnb.ca/MineralOccurrence/default.aspx?componentID=5&urn=30","lon":"-64.98830000000001","commodities":"Ag, Cu, Zn","lat":"45.71611"},"geometry":{"type":"Point","coordinates":[-64.98829860076951,45.71611938773309]}},{"type":"Feature","properties":{"name":"Sloop Cove","objectid":"3077146","urn":"31","min_occr_url":"http://dnr-mrn.gnb.ca/MineralOccurrence/default.aspx?componentID=5&urn=31","lon":"-66.87302","commodities":"Cu","lat":"44.68721"},"geometry":{"type":"Point","coordinates":[-66.87301917341031,44.68721916919272]}},{"type":"Feature","properties":{"name":"Taylors Island","objectid":"3077147","urn":"32","min_occr_url":"http://dnr-mrn.gnb.ca/MineralOccurrence/default.aspx?componentID=5&urn=32","lon":"-66.12747","commodities":"Au","lat":"45.223349999999996"},"geometry":{"type":"Point","coordinates":[-66.12746891778937,45.22335935875828]}},{"type":"Feature","properties":{"name":"Scott Falls Dam #1","objectid":"3077148","urn":"33","min_occr_url":"http://dnr-mrn.gnb.ca/MineralOccurrence/default.aspx?componentID=5&urn=33","lon":"-66.35106999999999","commodities":"Ag, Cu, Pb, Zn","lat":"45.18305"},"geometry":{"type":"Point","coordinates":[-66.35106895142967,45.183059275652916]}},{"type":"Feature","properties":{"name":"Scott Falls Dam #2","objectid":"3077149","urn":"34","min_occr_url":"http://dnr-mrn.gnb.ca/MineralOccurrence/default.aspx?componentID=5&urn=34","lon":"-66.35441999999999","commodities":"Mo","lat":"45.18499"},"geometry":{"type":"Point","coordinates":[-66.35441896759048,45.184999309371655]}},{"type":"Feature","properties":{"name":"Cape Spencer Mine","objectid":"3077150","urn":"35","min_occr_url":"http://dnr-mrn.gnb.ca/MineralOccurrence/default.aspx?componentID=5&urn=35","lon":"-65.91163","commodities":"Au","lat":"45.198319999999995"},"geometry":{"type":"Point","coordinates":[-65.91162889791553,45.19832928248464]}},{"type":"Feature","properties":{"name":"Goshen Copper *","objectid":"3077151","urn":"36","min_occr_url":"http://dnr-mrn.gnb.ca/MineralOccurrence/default.aspx?componentID=5&urn=36","lon":"-65.17053","commodities":"Cu","lat":"45.77333"},"geometry":{"type":"Point","coordinates":[-65.17052857682107,45.773339435947626]}},{"type":"Feature","properties":{"name":"Dipper Harbour - Anthonian","objectid":"3077152","urn":"37","min_occr_url":"http://dnr-mrn.gnb.ca/MineralOccurrence/default.aspx?componentID=5&urn=37","lon":"-66.39635","commodities":"Ag, Au","lat":"45.10084"},"geometry":{"type":"Point","coordinates":[-66.39634900431268,45.10084926994876]}},{"type":"Feature","properties":{"name":"Red Head Harbour *","objectid":"3077153","urn":"38","min_occr_url":"http://dnr-mrn.gnb.ca/MineralOccurrence/default.aspx?componentID=5&urn=38","lon":"-66.60247","commodities":"Ag, Cu","lat":"45.1075"},"geometry":{"type":"Point","coordinates":[-66.6024690890476,45.107509307450705]}},{"type":"Feature","properties":{"name":"St. Stephen Ni - Rogers Farm","objectid":"3077154","urn":"39","min_occr_url":"http://dnr-mrn.gnb.ca/MineralOccurrence/default.aspx?componentID=5&urn=39","lon":"-67.30275999999999","commodities":"Cu, Ni","lat":"45.22219"},"geometry":{"type":"Point","coordinates":[-67.30275930270984,45.22219930229315]}},{"type":"Feature","properties":{"name":"Coverdale River &quot;I&quot;","objectid":"3077155","urn":"40","min_occr_url":"http://dnr-mrn.gnb.ca/MineralOccurrence/default.aspx?componentID=5&urn=40","lon":"-65.01552","commodities":"Au","lat":"45.766400000000004"},"geometry":{"type":"Point","coordinates":[-65.0155185021244,45.76640947686271]}},{"type":"Feature","properties":{"name":"Jordan Mountain Copper","objectid":"3077156","urn":"41","min_occr_url":"http://dnr-mrn.gnb.ca/MineralOccurrence/default.aspx?componentID=5&urn=41","lon":"-65.49358","commodities":"Cu","lat":"45.826409999999996"},"geometry":{"type":"Point","coordinates":[-65.49357869389588,45.82641941830723]}},{"type":"Feature","properties":{"name":"St. Stephen Ni - C Zone","objectid":"3077157","urn":"42","min_occr_url":"http://dnr-mrn.gnb.ca/MineralOccurrence/default.aspx?componentID=5&urn=42","lon":"-67.29858999999999","commodities":"Cu, Ni","lat":"45.210029999999996"},"geometry":{"type":"Point","coordinates":[-67.29858933314902,45.21003932921581]}},{"type":"Feature","properties":{"name":"St. Stephen Ni - Hall-Carroll","objectid":"3077158","urn":"43","min_occr_url":"http://dnr-mrn.gnb.ca/MineralOccurrence/default.aspx?componentID=5&urn=43","lon":"-67.29496999999999","commodities":"Cu, Ni","lat":"45.21808"},"geometry":{"type":"Point","coordinates":[-67.29496936915115,45.218089272101665]}},{"type":"Feature","properties":{"name":"Mount Pleasant - Fire Tower Zone","objectid":"3077159","urn":"44","min_occr_url":"http://dnr-mrn.gnb.ca/MineralOccurrence/default.aspx?componentID=5&urn=44","lon":"-66.81302","commodities":"As, Bi, Cu, In, Mo, Sn, W, Zn","lat":"45.431689999999996"},"geometry":{"type":"Point","coordinates":[-66.81301921247568,45.4316992953162]}},{"type":"Feature","properties":{"name":"Burnthill Tungsten","objectid":"3077160","urn":"45","min_occr_url":"http://dnr-mrn.gnb.ca/MineralOccurrence/default.aspx?componentID=5&urn=45","lon":"-66.81385999999999","commodities":"Mo, Sn, W","lat":"46.56722"},"geometry":{"type":"Point","coordinates":[-66.81385928108972,46.567229576577034]}},{"type":"Feature","properties":{"name":"Flat Landing Brook","objectid":"3077161","urn":"46","min_occr_url":"http://dnr-mrn.gnb.ca/MineralOccurrence/default.aspx?componentID=5&urn=46","lon":"-65.87607","commodities":"Ag, Cu, Pb, Zn","lat":"47.38113"},"geometry":{"type":"Point","coordinates":[-65.87606891525003,47.381139686009966]}},{"type":"Feature","properties":{"name":"Nicholas Denys 1","objectid":"3077162","urn":"47","min_occr_url":"http://dnr-mrn.gnb.ca/MineralOccurrence/default.aspx?componentID=5&urn=47","lon":"-65.90062999999999","commodities":"Cu, Mo","lat":"47.72139"},"geometry":{"type":"Point","coordinates":[-65.90062894839042,47.721399764049565]}},{"type":"Feature","properties":{"name":"Manzer Giberson","objectid":"3077163","urn":"48","min_occr_url":"http://dnr-mrn.gnb.ca/MineralOccurrence/default.aspx?componentID=5&urn=48","lon":"-67.18524","commodities":null,"lat":"47.5328"},"geometry":{"type":"Point","coordinates":[-67.18523943094475,47.53280970707103]}},{"type":"Feature","properties":{"name":"Tetagouche Falls","objectid":"3077164","urn":"49","min_occr_url":"http://dnr-mrn.gnb.ca/MineralOccurrence/default.aspx?componentID=5&urn=49","lon":"-65.82500999999999","commodities":"Mn, Mn","lat":"47.616929999999996"},"geometry":{"type":"Point","coordinates":[-65.82500899322513,47.616939713293306]}},{"type":"Feature","properties":{"name":"Sheephouse Brook","objectid":"3077165","urn":"50","min_occr_url":"http://dnr-mrn.gnb.ca/MineralOccurrence/default.aspx?componentID=5&urn=50","lon":"-66.22109","commodities":"Cu, Pb, Zn","lat":"47.13724"},"geometry":{"type":"Point","coordinates":[-66.22108897959579,47.13724967935168]}},{"type":"Feature","properties":{"name":"Bathurst Copper &quot;I&quot;","objectid":"3077166","urn":"51","min_occr_url":"http://dnr-mrn.gnb.ca/MineralOccurrence/default.aspx?componentID=5&urn=51","lon":"-65.65969","commodities":"Cu","lat":"47.559729999999995"},"geometry":{"type":"Point","coordinates":[-65.6596888882689,47.55973968990234]}},{"type":"Feature","properties":{"name":"Wedge","objectid":"3077167","urn":"52","min_occr_url":"http://dnr-mrn.gnb.ca/MineralOccurrence/default.aspx?componentID=5&urn=52","lon":"-66.12903","commodities":"Ag, Cu, Pb, Zn","lat":"47.396339999999995"},"geometry":{"type":"Point","coordinates":[-66.12902899344321,47.39634967558811]}},{"type":"Feature","properties":{"name":"Knights Brook","objectid":"3077168","urn":"53","min_occr_url":"http://dnr-mrn.gnb.ca/MineralOccurrence/default.aspx?componentID=5&urn=53","lon":"-65.80440999999999","commodities":"Cu","lat":"47.428619999999995"},"geometry":{"type":"Point","coordinates":[-65.80440897421845,47.42862967276522]}},{"type":"Feature","properties":{"name":"Brunswick No. 12","objectid":"3077169","urn":"54","min_occr_url":"http://dnr-mrn.gnb.ca/MineralOccurrence/default.aspx?componentID=5&urn=54","lon":"-65.89218","commodities":"Cu, Pb, Zn","lat":"47.47888"},"geometry":{"type":"Point","coordinates":[-65.89217896506912,47.478889712689515]}},{"type":"Feature","properties":{"name":"Benjamin River South A","objectid":"3077170","urn":"55","min_occr_url":"http://dnr-mrn.gnb.ca/MineralOccurrence/default.aspx?componentID=5&urn=55","lon":"-66.34997","commodities":"Cu, Mo","lat":"47.820009999999996"},"geometry":{"type":"Point","coordinates":[-66.34996917693836,47.820019750971376]}},{"type":"Feature","properties":{"name":"Lumsden","objectid":"3077171","urn":"56","min_occr_url":"http://dnr-mrn.gnb.ca/MineralOccurrence/default.aspx?componentID=5&urn=56","lon":"-64.84664","commodities":"Ag, Au, Cu, Pb, Zn","lat":"45.796409999999995"},"geometry":{"type":"Point","coordinates":[-64.84663852459984,45.79641943345024]}},{"type":"Feature","properties":{"name":"Taylor Village","objectid":"3077172","urn":"57","min_occr_url":"http://dnr-mrn.gnb.ca/MineralOccurrence/default.aspx?componentID=5&urn=57","lon":"-64.55385","commodities":"Ti","lat":"45.93833"},"geometry":{"type":"Point","coordinates":[-64.55384839369859,45.93833945487893]}},{"type":"Feature","properties":{"name":"Quisibis Mountain","objectid":"3077173","urn":"58","min_occr_url":"http://dnr-mrn.gnb.ca/MineralOccurrence/default.aspx?componentID=5&urn=58","lon":"-67.96912999999999","commodities":"Cu","lat":"47.423359999999995"},"geometry":{"type":"Point","coordinates":[-67.96912971233405,47.423369663961374]}},{"type":"Feature","properties":{"name":"Shippegan Island","objectid":"3077174","urn":"59","min_occr_url":"http://dnr-mrn.gnb.ca/MineralOccurrence/default.aspx?componentID=5&urn=59","lon":"-64.63051999999999","commodities":"Cu, U","lat":"47.72835"},"geometry":{"type":"Point","coordinates":[-64.63051854898897,47.72835976529015]}},{"type":"Feature","properties":{"name":"Little Sevogle River 1","objectid":"3077175","urn":"60","min_occr_url":"http://dnr-mrn.gnb.ca/MineralOccurrence/default.aspx?componentID=5&urn=60","lon":"-65.99","commodities":"Au","lat":"47.00049"},"geometry":{"type":"Point","coordinates":[-65.98999892502816,47.0004995895386]}},{"type":"Feature","properties":{"name":"Stoney Brook","objectid":"3077176","urn":"61","min_occr_url":"http://dnr-mrn.gnb.ca/MineralOccurrence/default.aspx?componentID=5&urn=61","lon":"-65.99766","commodities":"Pb, Zn","lat":"47.157329999999995"},"geometry":{"type":"Point","coordinates":[-65.99765891257194,47.15733969590015]}},{"type":"Feature","properties":{"name":"Orvan Brook","objectid":"3077177","urn":"62","min_occr_url":"http://dnr-mrn.gnb.ca/MineralOccurrence/default.aspx?componentID=5&urn=62","lon":"-66.12246999999999","commodities":"Cu, Pb, Zn","lat":"47.630579999999995"},"geometry":{"type":"Point","coordinates":[-66.12246900724843,47.630589773823615]}},{"type":"Feature","properties":{"name":"Lower South Branch Jacquet R.","objectid":"3077178","urn":"63","min_occr_url":"http://dnr-mrn.gnb.ca/MineralOccurrence/default.aspx?componentID=5&urn=63","lon":"-66.0910699","commodities":"Cu, Zn","lat":"47.7416984"},"geometry":{"type":"Point","coordinates":[-66.09106899028379,47.74170811891501]}},{"type":"Feature","properties":{"name":"Long Lake","objectid":"3077179","urn":"64","min_occr_url":"http://dnr-mrn.gnb.ca/MineralOccurrence/default.aspx?componentID=5&urn=64","lon":"-66.84130499999999","commodities":"Ag, Cu, Pb, U, Zn","lat":"47.0235833"},"geometry":{"type":"Point","coordinates":[-66.84130426195448,47.02359289893617]}},{"type":"Feature","properties":{"name":"Pabineau Lake","objectid":"3077180","urn":"65","min_occr_url":"http://dnr-mrn.gnb.ca/MineralOccurrence/default.aspx?componentID=5&urn=65","lon":"-65.764175","commodities":"Mo","lat":"47.509661"},"geometry":{"type":"Point","coordinates":[-65.76417391803643,47.50967068930075]}},{"type":"Feature","properties":{"name":"Roche Long Lac","objectid":"3077181","urn":"66","min_occr_url":"http://dnr-mrn.gnb.ca/MineralOccurrence/default.aspx?componentID=5&urn=66","lon":"-65.96978","commodities":"Pb, Zn","lat":"47.24127"},"geometry":{"type":"Point","coordinates":[-65.96977895813319,47.241279650026165]}},{"type":"Feature","properties":{"name":"Mullin Stream","objectid":"3077182","urn":"67","min_occr_url":"http://dnr-mrn.gnb.ca/MineralOccurrence/default.aspx?componentID=5&urn=67","lon":"-65.98131","commodities":"Cu","lat":"47.05752"},"geometry":{"type":"Point","coordinates":[-65.98130897306604,47.05752962871337]}},{"type":"Feature","properties":{"name":"Napan River","objectid":"3077183","urn":"68","min_occr_url":"http://dnr-mrn.gnb.ca/MineralOccurrence/default.aspx?componentID=5&urn=68","lon":"-65.33051999999999","commodities":null,"lat":"47.04891"},"geometry":{"type":"Point","coordinates":[-65.33051867281918,47.04891964190036]}},{"type":"Feature","properties":{"name":"Austin Brook","objectid":"3077184","urn":"69","min_occr_url":"http://dnr-mrn.gnb.ca/MineralOccurrence/default.aspx?componentID=5&urn=69","lon":"-65.82302","commodities":"Ag, Fe, Pb, Zn","lat":"47.39778"},"geometry":{"type":"Point","coordinates":[-65.8230189440059,47.39778969662086]}},{"type":"Feature","properties":{"name":"Lavigne Brook","objectid":"3077185","urn":"70","min_occr_url":"http://dnr-mrn.gnb.ca/MineralOccurrence/default.aspx?componentID=5&urn=70","lon":"-65.85773","commodities":"Ag, Cu, Pb, Zn","lat":"47.69692"},"geometry":{"type":"Point","coordinates":[-65.85772900424047,47.696929716887986]}},{"type":"Feature","properties":{"name":"Chester","objectid":"3077186","urn":"71","min_occr_url":"http://dnr-mrn.gnb.ca/MineralOccurrence/default.aspx?componentID=5&urn=71","lon":"-66.22419","commodities":"Cu","lat":"47.10064"},"geometry":{"type":"Point","coordinates":[-66.22418904513076,47.10064962017832]}},{"type":"Feature","properties":{"name":"Belledune Pond","objectid":"3077187","urn":"72","min_occr_url":"http://dnr-mrn.gnb.ca/MineralOccurrence/default.aspx?componentID=5&urn=72","lon":"-65.97922","commodities":"Ag, Cu, Pb, Zn","lat":"47.82637"},"geometry":{"type":"Point","coordinates":[-65.97921898491133,47.82637978353527]}},{"type":"Feature","properties":{"name":"Ellis Brook","objectid":"3077188","urn":"73","min_occr_url":"http://dnr-mrn.gnb.ca/MineralOccurrence/default.aspx?componentID=5&urn=73","lon":"-65.88996999999999","commodities":"Cu, Pb, Zn","lat":"47.77224"},"geometry":{"type":"Point","coordinates":[-65.88996894050332,47.77224973344518]}},{"type":"Feature","properties":{"name":"Patapat Brook South","objectid":"3077189","urn":"74","min_occr_url":"http://dnr-mrn.gnb.ca/MineralOccurrence/default.aspx?componentID=5&urn=74","lon":"-65.9785677","commodities":"Pb, Zn","lat":"47.8439218"},"geometry":{"type":"Point","coordinates":[-65.97856664241245,47.843931609582725]}},{"type":"Feature","properties":{"name":"Patapat Brook","objectid":"3077190","urn":"75","min_occr_url":"http://dnr-mrn.gnb.ca/MineralOccurrence/default.aspx?componentID=5&urn=75","lon":"-65.96924","commodities":"Ag, Cu, Pb, Zn","lat":"47.85404"},"geometry":{"type":"Point","coordinates":[-65.96923894924595,47.85404981109725]}},{"type":"Feature","properties":{"name":"Mitchell Settlement D","objectid":"3077191","urn":"76","min_occr_url":"http://dnr-mrn.gnb.ca/MineralOccurrence/default.aspx?componentID=5&urn=76","lon":"-65.98329","commodities":"Ag, Cu","lat":"47.859469999999995"},"geometry":{"type":"Point","coordinates":[-65.9832890244348,47.85947979583602]}},{"type":"Feature","properties":{"name":"Bradley Brook D","objectid":"3077192","urn":"77","min_occr_url":"http://dnr-mrn.gnb.ca/MineralOccurrence/default.aspx?componentID=5&urn=77","lon":"-65.93435","commodities":"Ag, Pb, Zn","lat":"47.67169"},"geometry":{"type":"Point","coordinates":[-65.93434903114832,47.671699705019286]}},{"type":"Feature","properties":{"name":"Green River Mountain","objectid":"3077193","urn":"78","min_occr_url":"http://dnr-mrn.gnb.ca/MineralOccurrence/default.aspx?componentID=5&urn=78","lon":"-68.14997","commodities":"Au, Cu, Mo","lat":"47.381409999999995"},"geometry":{"type":"Point","coordinates":[-68.14996972749229,47.381419628838906]}},{"type":"Feature","properties":{"name":"MacDonald Pond","objectid":"3077194","urn":"79","min_occr_url":"http://dnr-mrn.gnb.ca/MineralOccurrence/default.aspx?componentID=5&urn=79","lon":"-66.86274999999999","commodities":"Cu, Pb, Zn","lat":"47.07141"},"geometry":{"type":"Point","coordinates":[-66.86274930964701,47.071419630647085]}},{"type":"Feature","properties":{"name":"Zarina","objectid":"3077195","urn":"80","min_occr_url":"http://dnr-mrn.gnb.ca/MineralOccurrence/default.aspx?componentID=5&urn=80","lon":"-65.93169","commodities":"Ag, Au, Pb, Zn","lat":"47.6726"},"geometry":{"type":"Point","coordinates":[-65.93168896093967,47.6726097466403]}},{"type":"Feature","properties":{"name":"Bradley Brook A","objectid":"3077196","urn":"81","min_occr_url":"http://dnr-mrn.gnb.ca/MineralOccurrence/default.aspx?componentID=5&urn=81","lon":"-65.93885","commodities":"Ag, Au","lat":"47.67058"},"geometry":{"type":"Point","coordinates":[-65.93884897319307,47.67058977840045]}},{"type":"Feature","properties":{"name":"North Bradley Brook","objectid":"3077197","urn":"82","min_occr_url":"http://dnr-mrn.gnb.ca/MineralOccurrence/default.aspx?componentID=5&urn=82","lon":"-65.9508","commodities":null,"lat":"47.66891"},"geometry":{"type":"Point","coordinates":[-65.95079893325665,47.66891974596819]}},{"type":"Feature","properties":{"name":"Gough","objectid":"3077198","urn":"83","min_occr_url":"http://dnr-mrn.gnb.ca/MineralOccurrence/default.aspx?componentID=5&urn=83","lon":"-66.62913","commodities":null,"lat":"47.24084"},"geometry":{"type":"Point","coordinates":[-66.6291292398838,47.24084965956521]}},{"type":"Feature","properties":{"name":"Serpentine River","objectid":"3077199","urn":"84","min_occr_url":"http://dnr-mrn.gnb.ca/MineralOccurrence/default.aspx?componentID=5&urn=84","lon":"-66.81469","commodities":null,"lat":"47.192519999999995"},"geometry":{"type":"Point","coordinates":[-66.81468927574349,47.192529654487956]}},{"type":"Feature","properties":{"name":"Antinouri Lake West A","objectid":"3077200","urn":"85","min_occr_url":"http://dnr-mrn.gnb.ca/MineralOccurrence/default.aspx?componentID=5&urn=85","lon":"-65.98514999999999","commodities":"Ag, Cu, Pb, Zn","lat":"47.78951"},"geometry":{"type":"Point","coordinates":[-65.98514895987483,47.78951979042418]}},{"type":"Feature","properties":{"name":"Antinouri Lake South A","objectid":"3077201","urn":"86","min_occr_url":"http://dnr-mrn.gnb.ca/MineralOccurrence/default.aspx?componentID=5&urn=86","lon":"-65.97576","commodities":"Ag, Au, Cu","lat":"47.76977"},"geometry":{"type":"Point","coordinates":[-65.97575892549489,47.76977975601468]}},{"type":"Feature","properties":{"name":"Dorchester Mine (Cu)","objectid":"3077202","urn":"87","min_occr_url":"http://dnr-mrn.gnb.ca/MineralOccurrence/default.aspx?componentID=5&urn=87","lon":"-64.47691999999999","commodities":"Cu","lat":"45.936969999999995"},"geometry":{"type":"Point","coordinates":[-64.47691841244522,45.93697950896121]}},{"type":"Feature","properties":{"name":"Popelogan Lake","objectid":"3077203","urn":"88","min_occr_url":"http://dnr-mrn.gnb.ca/MineralOccurrence/default.aspx?componentID=5&urn=88","lon":"-66.61856999999999","commodities":"Pb, Zn","lat":"47.80196"},"geometry":{"type":"Point","coordinates":[-66.61856923547717,47.801969763260736]}},{"type":"Feature","properties":{"name":"Popelogan","objectid":"3077204","urn":"89","min_occr_url":"http://dnr-mrn.gnb.ca/MineralOccurrence/default.aspx?componentID=5&urn=89","lon":"-66.62499","commodities":"Cu","lat":"47.77222"},"geometry":{"type":"Point","coordinates":[-66.62498919386418,47.77222975782358]}},{"type":"Feature","properties":{"name":"Patapedia North","objectid":"3077205","urn":"90","min_occr_url":"http://dnr-mrn.gnb.ca/MineralOccurrence/default.aspx?componentID=5&urn=90","lon":"-67.4208","commodities":"Ag, Cu, Pb, Zn","lat":"47.85613"},"geometry":{"type":"Point","coordinates":[-67.4207995392598,47.85613976275282]}},{"type":"Feature","properties":{"name":"Goulette Brook","objectid":"3077206","urn":"91","min_occr_url":"http://dnr-mrn.gnb.ca/MineralOccurrence/default.aspx?componentID=5&urn=91","lon":"-66.59094999999999","commodities":"Ag, Cu, Pb, Zn","lat":"47.85141"},"geometry":{"type":"Point","coordinates":[-66.59094925724024,47.851419775272795]}},{"type":"Feature","properties":{"name":"Patapedia South","objectid":"3077207","urn":"92","min_occr_url":"http://dnr-mrn.gnb.ca/MineralOccurrence/default.aspx?componentID=5&urn=92","lon":"-67.41636","commodities":"Ag, Cu","lat":"47.833349999999996"},"geometry":{"type":"Point","coordinates":[-67.41635950071004,47.83335975910289]}},{"type":"Feature","properties":{"name":"Upsalquitch Lake","objectid":"3077208","urn":"93","min_occr_url":"http://dnr-mrn.gnb.ca/MineralOccurrence/default.aspx?componentID=5&urn=93","lon":"-66.51109","commodities":"Cu, Zn","lat":"47.4728"},"geometry":{"type":"Point","coordinates":[-66.51108918895812,47.47280972349544]}},{"type":"Feature","properties":{"name":"Little Nictor Lake","objectid":"3077209","urn":"94","min_occr_url":"http://dnr-mrn.gnb.ca/MineralOccurrence/default.aspx?componentID=5&urn=94","lon":"-66.84441","commodities":"Zn","lat":"47.40641"},"geometry":{"type":"Point","coordinates":[-66.84440921483186,47.406419690036515]}},{"type":"Feature","properties":{"name":"Popple South","objectid":"3077210","urn":"95","min_occr_url":"http://dnr-mrn.gnb.ca/MineralOccurrence/default.aspx?componentID=5&urn=95","lon":"-66.50663999999999","commodities":"Cu, Ni","lat":"47.36862"},"geometry":{"type":"Point","coordinates":[-66.5066391223332,47.36862968437011]}},{"type":"Feature","properties":{"name":"Portage Brook","objectid":"3077211","urn":"96","min_occr_url":"http://dnr-mrn.gnb.ca/MineralOccurrence/default.aspx?componentID=5&urn=96","lon":"-66.58330099999999","commodities":"Pb, Zn","lat":"47.4717213"},"geometry":{"type":"Point","coordinates":[-66.58330017999414,47.47173101532838]}},{"type":"Feature","properties":{"name":"Upsalquitch Lake South","objectid":"3077212","urn":"97","min_occr_url":"http://dnr-mrn.gnb.ca/MineralOccurrence/default.aspx?componentID=5&urn=97","lon":"-66.51774999999999","commodities":null,"lat":"47.442789999999995"},"geometry":{"type":"Point","coordinates":[-66.51774912533976,47.44279972828733]}},{"type":"Feature","properties":{"name":"Upsalquitch Lake Gold","objectid":"3077213","urn":"98","min_occr_url":"http://dnr-mrn.gnb.ca/MineralOccurrence/default.aspx?componentID=5&urn=98","lon":"-66.49996999999999","commodities":null,"lat":"47.46447"},"geometry":{"type":"Point","coordinates":[-66.49996918329194,47.46447965793444]}},{"type":"Feature","properties":{"name":"Glacier Lake","objectid":"3077214","urn":"99","min_occr_url":"http://dnr-mrn.gnb.ca/MineralOccurrence/default.aspx?componentID=5&urn=99","lon":"-66.61555","commodities":null,"lat":"47.26291"},"geometry":{"type":"Point","coordinates":[-66.61554914883395,47.26291962270104]}},{"type":"Feature","properties":{"name":"Portage Lakes","objectid":"3077215","urn":"100","min_occr_url":"http://dnr-mrn.gnb.ca/MineralOccurrence/default.aspx?componentID=5&urn=100","lon":"-66.59774999999999","commodities":"Cu, Pb","lat":"47.48419"},"geometry":{"type":"Point","coordinates":[-66.5977492385248,47.48419973097]}},{"type":"Feature","properties":{"name":"St. Leonard Iron-Manganese","objectid":"3077216","urn":"101","min_occr_url":"http://dnr-mrn.gnb.ca/MineralOccurrence/default.aspx?componentID=5&urn=101","lon":"-67.88663","commodities":"Mn, Mn","lat":"47.20529"},"geometry":{"type":"Point","coordinates":[-67.88662964294045,47.2052996559637]}},{"type":"Feature","properties":{"name":"Shingle Gulch","objectid":"3077217","urn":"102","min_occr_url":"http://dnr-mrn.gnb.ca/MineralOccurrence/default.aspx?componentID=5&urn=102","lon":"-67.05081","commodities":"Pb, Zn","lat":"47.07113"},"geometry":{"type":"Point","coordinates":[-67.05080935066084,47.071139594828416]}},{"type":"Feature","properties":{"name":"Campbell River","objectid":"3077218","urn":"103","min_occr_url":"http://dnr-mrn.gnb.ca/MineralOccurrence/default.aspx?componentID=5&urn=103","lon":"-66.99886","commodities":null,"lat":"47.12891"},"geometry":{"type":"Point","coordinates":[-66.99885936390126,47.12891959308645]}},{"type":"Feature","properties":{"name":"Mitchell Settlement A","objectid":"3077219","urn":"104","min_occr_url":"http://dnr-mrn.gnb.ca/MineralOccurrence/default.aspx?componentID=5&urn=104","lon":"-66.02637","commodities":"Ba, Cu","lat":"47.84623"},"geometry":{"type":"Point","coordinates":[-66.02636895175957,47.84623978050989]}},{"type":"Feature","properties":{"name":"Nash Creek - Hickey zone","objectid":"3077220","urn":"105","min_occr_url":"http://dnr-mrn.gnb.ca/MineralOccurrence/default.aspx?componentID=5&urn=105","lon":"-66.09828999999999","commodities":"Ag, Pb, Zn","lat":"47.887519999999995"},"geometry":{"type":"Point","coordinates":[-66.09828900971863,47.88752975969568]}},{"type":"Feature","properties":{"name":"Benjamin River","objectid":"3077221","urn":"106","min_occr_url":"http://dnr-mrn.gnb.ca/MineralOccurrence/default.aspx?componentID=5&urn=106","lon":"-66.20385","commodities":"REE, Y","lat":"47.90741"},"geometry":{"type":"Point","coordinates":[-66.20384901392076,47.90741973545211]}},{"type":"Feature","properties":{"name":"Elmtree 8","objectid":"3077222","urn":"107","min_occr_url":"http://dnr-mrn.gnb.ca/MineralOccurrence/default.aspx?componentID=5&urn=107","lon":"-65.87774","commodities":"Ni","lat":"47.77362"},"geometry":{"type":"Point","coordinates":[-65.87773896523646,47.77362977585127]}},{"type":"Feature","properties":{"name":"Elmtree 7A","objectid":"3077223","urn":"108","min_occr_url":"http://dnr-mrn.gnb.ca/MineralOccurrence/default.aspx?componentID=5&urn=108","lon":"-65.87552","commodities":"Au, Cu, Ni, Zn","lat":"47.784189999999995"},"geometry":{"type":"Point","coordinates":[-65.87551888975862,47.78419973685812]}},{"type":"Feature","properties":{"name":"Elmtree 9","objectid":"3077224","urn":"109","min_occr_url":"http://dnr-mrn.gnb.ca/MineralOccurrence/default.aspx?componentID=5&urn=109","lon":"-65.84858","commodities":"Pb, Zn","lat":"47.796409999999995"},"geometry":{"type":"Point","coordinates":[-65.8485789958071,47.79641973880266]}},{"type":"Feature","properties":{"name":"Elmtree 6","objectid":"3077225","urn":"110","min_occr_url":"http://dnr-mrn.gnb.ca/MineralOccurrence/default.aspx?componentID=5&urn=110","lon":"-65.84635999999999","commodities":"Pb, Zn","lat":"47.810579999999995"},"geometry":{"type":"Point","coordinates":[-65.84635890508501,47.810589788063574]}},{"type":"Feature","properties":{"name":"Elmtree 5","objectid":"3077226","urn":"111","min_occr_url":"http://dnr-mrn.gnb.ca/MineralOccurrence/default.aspx?componentID=5&urn=111","lon":"-65.85663","commodities":"Zn","lat":"47.81585"},"geometry":{"type":"Point","coordinates":[-65.85662896176937,47.8158597573666]}},{"type":"Feature","properties":{"name":"Elmtree 4","objectid":"3077227","urn":"112","min_occr_url":"http://dnr-mrn.gnb.ca/MineralOccurrence/default.aspx?componentID=5&urn=112","lon":"-65.83024","commodities":"Zn","lat":"47.795300000000005"},"geometry":{"type":"Point","coordinates":[-65.83023898034892,47.795309776249056]}},{"type":"Feature","properties":{"name":"Elmtree 3","objectid":"3077228","urn":"113","min_occr_url":"http://dnr-mrn.gnb.ca/MineralOccurrence/default.aspx?componentID=5&urn=113","lon":"-65.82245999999999","commodities":"Ag, Pb, Zn","lat":"47.80308"},"geometry":{"type":"Point","coordinates":[-65.8224589602315,47.803089766725435]}},{"type":"Feature","properties":{"name":"Elmtree 2","objectid":"3077229","urn":"114","min_occr_url":"http://dnr-mrn.gnb.ca/MineralOccurrence/default.aspx?componentID=5&urn=114","lon":"-65.83265","commodities":"Ag, Cu, Pb, Zn","lat":"47.81332"},"geometry":{"type":"Point","coordinates":[-65.83264895147133,47.813329804298604]}},{"type":"Feature","properties":{"name":"Elmtree 1A","objectid":"3077230","urn":"115","min_occr_url":"http://dnr-mrn.gnb.ca/MineralOccurrence/default.aspx?componentID=5&urn=115","lon":"-65.83913","commodities":"Cu, Pb, Zn","lat":"47.826969999999996"},"geometry":{"type":"Point","coordinates":[-65.83912891648707,47.82697979275881]}},{"type":"Feature","properties":{"name":"Elmtree 4A","objectid":"3077231","urn":"116","min_occr_url":"http://dnr-mrn.gnb.ca/MineralOccurrence/default.aspx?componentID=5&urn=116","lon":"-65.83525","commodities":"Ag, Pb, Zn","lat":"47.79808"},"geometry":{"type":"Point","coordinates":[-65.83524890182849,47.798089784823134]}},{"type":"Feature","properties":{"name":"Caraquet Galena","objectid":"3077232","urn":"117","min_occr_url":"http://dnr-mrn.gnb.ca/MineralOccurrence/default.aspx?componentID=5&urn=117","lon":"-64.83885","commodities":null,"lat":"47.80779"},"geometry":{"type":"Point","coordinates":[-64.83884858318599,47.80779979323524]}},{"type":"Feature","properties":{"name":"Pigeon Hill","objectid":"3077233","urn":"118","min_occr_url":"http://dnr-mrn.gnb.ca/MineralOccurrence/default.aspx?componentID=5&urn=118","lon":"-64.51079","commodities":null,"lat":"47.845569999999995"},"geometry":{"type":"Point","coordinates":[-64.51078853091454,47.84557981752014]}},{"type":"Feature","properties":{"name":"Antinouri Lake","objectid":"3077234","urn":"119","min_occr_url":"http://dnr-mrn.gnb.ca/MineralOccurrence/default.aspx?componentID=5&urn=119","lon":"-65.96762","commodities":"Mo","lat":"47.785889999999995"},"geometry":{"type":"Point","coordinates":[-65.96761895854033,47.78589973034027]}},{"type":"Feature","properties":{"name":"Ahearn Brook","objectid":"3077235","urn":"120","min_occr_url":"http://dnr-mrn.gnb.ca/MineralOccurrence/default.aspx?componentID=5&urn=120","lon":"-66.19968","commodities":"Cu, Pb, Zn","lat":"47.47108"},"geometry":{"type":"Point","coordinates":[-66.199679053906,47.471089741367756]}},{"type":"Feature","properties":{"name":"Mardran West Au","objectid":"3077236","urn":"121","min_occr_url":"http://dnr-mrn.gnb.ca/MineralOccurrence/default.aspx?componentID=5&urn=121","lon":"-65.86350999999999","commodities":"Au","lat":"47.78582"},"geometry":{"type":"Point","coordinates":[-65.86350892329561,47.785829762821294]}},{"type":"Feature","properties":{"name":"Fab Main Zone","objectid":"3077237","urn":"122","min_occr_url":"http://dnr-mrn.gnb.ca/MineralOccurrence/default.aspx?componentID=5&urn=122","lon":"-65.81607","commodities":"Ag, Cu, Zn","lat":"47.44641"},"geometry":{"type":"Point","coordinates":[-65.81606890405,47.44641971429506]}},{"type":"Feature","properties":{"name":"Pabineau River 1","objectid":"3077238","urn":"123","min_occr_url":"http://dnr-mrn.gnb.ca/MineralOccurrence/default.aspx?componentID=5&urn=123","lon":"-65.7508","commodities":"Mo","lat":"47.44613"},"geometry":{"type":"Point","coordinates":[-65.75079887857866,47.44613972941163]}},{"type":"Feature","properties":{"name":"Headway","objectid":"3077239","urn":"124","min_occr_url":"http://dnr-mrn.gnb.ca/MineralOccurrence/default.aspx?componentID=5&urn=124","lon":"-65.89913","commodities":"Cu, Pb, Zn","lat":"47.44527"},"geometry":{"type":"Point","coordinates":[-65.89912898142039,47.44527968090543]}},{"type":"Feature","properties":{"name":"Beresford Copper","objectid":"3077240","urn":"125","min_occr_url":"http://dnr-mrn.gnb.ca/MineralOccurrence/default.aspx?componentID=5&urn=125","lon":"-65.85543","commodities":"Ag, Au, Cu, Zn","lat":"47.697489999999995"},"geometry":{"type":"Point","coordinates":[-65.85542899188293,47.69749975737506]}},{"type":"Feature","properties":{"name":"Nigadoo 7","objectid":"3077241","urn":"126","min_occr_url":"http://dnr-mrn.gnb.ca/MineralOccurrence/default.aspx?componentID=5&urn=126","lon":"-65.91496","commodities":"Ag, Au, Pb, Zn","lat":"47.74001"},"geometry":{"type":"Point","coordinates":[-65.91495899760146,47.74001979649571]}},{"type":"Feature","properties":{"name":"Nigadoo 6","objectid":"3077242","urn":"127","min_occr_url":"http://dnr-mrn.gnb.ca/MineralOccurrence/default.aspx?componentID=5&urn=127","lon":"-65.88735","commodities":"Ag, Au","lat":"47.74442"},"geometry":{"type":"Point","coordinates":[-65.8873489833781,47.744429761858925]}},{"type":"Feature","properties":{"name":"Nigadoo River Mine","objectid":"3077243","urn":"128","min_occr_url":"http://dnr-mrn.gnb.ca/MineralOccurrence/default.aspx?componentID=5&urn=128","lon":"-65.80642","commodities":"Ag, Cu, Pb, Zn","lat":"47.733059999999995"},"geometry":{"type":"Point","coordinates":[-65.80641886450213,47.73306975637967]}},{"type":"Feature","properties":{"name":"Atholville","objectid":"3077244","urn":"129","min_occr_url":"http://dnr-mrn.gnb.ca/MineralOccurrence/default.aspx?componentID=5&urn=129","lon":"-66.70940999999999","commodities":"U","lat":"47.99668"},"geometry":{"type":"Point","coordinates":[-66.70940926748035,47.99668976713345]}},{"type":"Feature","properties":{"name":"Rob Brook","objectid":"3077245","urn":"130","min_occr_url":"http://dnr-mrn.gnb.ca/MineralOccurrence/default.aspx?componentID=5&urn=130","lon":"-67.9833","commodities":null,"lat":"47.348079999999996"},"geometry":{"type":"Point","coordinates":[-67.98329965278415,47.348089672745495]}},{"type":"Feature","properties":{"name":"Squaw Cap","objectid":"3077246","urn":"131","min_occr_url":"http://dnr-mrn.gnb.ca/MineralOccurrence/default.aspx?componentID=5&urn=131","lon":"-66.90474999999999","commodities":"Ag, Pb, Zn","lat":"47.87273"},"geometry":{"type":"Point","coordinates":[-66.90474937142963,47.872739709126606]}},{"type":"Feature","properties":{"name":"Cox Brook","objectid":"3077247","urn":"132","min_occr_url":"http://dnr-mrn.gnb.ca/MineralOccurrence/default.aspx?componentID=5&urn=132","lon":"-66.93352999999999","commodities":"U","lat":"47.85366"},"geometry":{"type":"Point","coordinates":[-66.93352930934063,47.853669772405105]}},{"type":"Feature","properties":{"name":"Pabineau River 2","objectid":"3077248","urn":"133","min_occr_url":"http://dnr-mrn.gnb.ca/MineralOccurrence/default.aspx?componentID=5&urn=133","lon":"-65.77552","commodities":"Mo","lat":"47.43974"},"geometry":{"type":"Point","coordinates":[-65.7755189333424,47.43974966867369]}},{"type":"Feature","properties":{"name":"SE Upsalquitch River northwest","objectid":"3077249","urn":"134","min_occr_url":"http://dnr-mrn.gnb.ca/MineralOccurrence/default.aspx?componentID=5&urn=134","lon":"-66.5248","commodities":null,"lat":"47.53478"},"geometry":{"type":"Point","coordinates":[-66.52479912476285,47.53478969043365]}},{"type":"Feature","properties":{"name":"SE Upsalquitch River West","objectid":"3077250","urn":"135","min_occr_url":"http://dnr-mrn.gnb.ca/MineralOccurrence/default.aspx?componentID=5&urn=135","lon":"-66.50070000000001","commodities":"Pb, Zn","lat":"47.51826"},"geometry":{"type":"Point","coordinates":[-66.50069913979313,47.51826971133432]}},{"type":"Feature","properties":{"name":"Upsalquitch Forks","objectid":"3077251","urn":"136","min_occr_url":"http://dnr-mrn.gnb.ca/MineralOccurrence/default.aspx?componentID=5&urn=136","lon":"-66.71524","commodities":"Ag, Pb, Zn","lat":"47.65446"},"geometry":{"type":"Point","coordinates":[-66.71523927479538,47.65446970736278]}},{"type":"Feature","properties":{"name":"Restigouche C4","objectid":"3077252","urn":"137","min_occr_url":"http://dnr-mrn.gnb.ca/MineralOccurrence/default.aspx?componentID=5&urn=137","lon":"-66.56775","commodities":"Pb, Zn","lat":"47.505849999999995"},"geometry":{"type":"Point","coordinates":[-66.56774915749799,47.50585973470551]}},{"type":"Feature","properties":{"name":"Wodens Rock Brook","objectid":"3077253","urn":"138","min_occr_url":"http://dnr-mrn.gnb.ca/MineralOccurrence/default.aspx?componentID=5&urn=138","lon":"-66.913","commodities":null,"lat":"47.76038"},"geometry":{"type":"Point","coordinates":[-66.912999344415,47.76038975007831]}},{"type":"Feature","properties":{"name":"Restigouche","objectid":"3077254","urn":"139","min_occr_url":"http://dnr-mrn.gnb.ca/MineralOccurrence/default.aspx?componentID=5&urn=139","lon":"-66.54941","commodities":"Pb, Zn","lat":"47.4989"},"geometry":{"type":"Point","coordinates":[-66.54940920993859,47.498909729143556]}},{"type":"Feature","properties":{"name":"Jonpol","objectid":"3077255","urn":"140","min_occr_url":"http://dnr-mrn.gnb.ca/MineralOccurrence/default.aspx?componentID=5&urn=140","lon":"-66.60248","commodities":null,"lat":"47.56975"},"geometry":{"type":"Point","coordinates":[-66.60247924492664,47.56975972750106]}},{"type":"Feature","properties":{"name":"Dalhousie Road","objectid":"3077256","urn":"141","min_occr_url":"http://dnr-mrn.gnb.ca/MineralOccurrence/default.aspx?componentID=5&urn=141","lon":"-66.60136","commodities":null,"lat":"47.58864"},"geometry":{"type":"Point","coordinates":[-66.60135913936212,47.5886497250603]}},{"type":"Feature","properties":{"name":"Mulligan Gulch","objectid":"3077257","urn":"142","min_occr_url":"http://dnr-mrn.gnb.ca/MineralOccurrence/default.aspx?componentID=5&urn=142","lon":"-66.63302999999999","commodities":"Au","lat":"47.605019999999996"},"geometry":{"type":"Point","coordinates":[-66.63302915389836,47.605029729314225]}},{"type":"Feature","properties":{"name":"Gilmour Brook-Beehler","objectid":"3077258","urn":"143","min_occr_url":"http://dnr-mrn.gnb.ca/MineralOccurrence/default.aspx?componentID=5&urn=143","lon":"-65.80024999999999","commodities":"Au, Cu, Zn","lat":"47.37056"},"geometry":{"type":"Point","coordinates":[-65.80024896531795,47.3705696812841]}},{"type":"Feature","properties":{"name":"Brunswick No. 6","objectid":"3077259","urn":"144","min_occr_url":"http://dnr-mrn.gnb.ca/MineralOccurrence/default.aspx?componentID=5&urn=144","lon":"-65.82245999999999","commodities":"Ag, Ag, Cu, Pb, Zn","lat":"47.40835"},"geometry":{"type":"Point","coordinates":[-65.82245890095503,47.40835971006583]}},{"type":"Feature","properties":{"name":"New Highridge","objectid":"3077260","urn":"145","min_occr_url":"http://dnr-mrn.gnb.ca/MineralOccurrence/default.aspx?componentID=5&urn=145","lon":"-65.7994","commodities":"Cu, Pb, Zn","lat":"47.41141"},"geometry":{"type":"Point","coordinates":[-65.79939891731347,47.411419727425006]}},{"type":"Feature","properties":{"name":"Coulee","objectid":"3077261","urn":"146","min_occr_url":"http://dnr-mrn.gnb.ca/MineralOccurrence/default.aspx?componentID=5&urn=146","lon":"-65.90607","commodities":"Cu, Pb, Zn","lat":"47.38307"},"geometry":{"type":"Point","coordinates":[-65.9060688807564,47.383079732730046]}},{"type":"Feature","properties":{"name":"Louvicourt Deposit","objectid":"3077262","urn":"147","min_occr_url":"http://dnr-mrn.gnb.ca/MineralOccurrence/default.aspx?componentID=5&urn=147","lon":"-65.92996","commodities":"Ag, Au, Cu, Pb, Zn","lat":"47.39224"},"geometry":{"type":"Point","coordinates":[-65.92995899394295,47.39224970217552]}},{"type":"Feature","properties":{"name":"Louvicourt North","objectid":"3077263","urn":"148","min_occr_url":"http://dnr-mrn.gnb.ca/MineralOccurrence/default.aspx?componentID=5&urn=148","lon":"-65.93384999999999","commodities":"Pb, Zn","lat":"47.39779"},"geometry":{"type":"Point","coordinates":[-65.9338490138171,47.39779972750258]}},{"type":"Feature","properties":{"name":"Astrabrun North and South","objectid":"3077264","urn":"149","min_occr_url":"http://dnr-mrn.gnb.ca/MineralOccurrence/default.aspx?componentID=5&urn=149","lon":"-65.99552","commodities":"Pb, Zn","lat":"47.38473"},"geometry":{"type":"Point","coordinates":[-65.99551902860372,47.38473970982557]}},{"type":"Feature","properties":{"name":"Swamp Lake Brook","objectid":"3077265","urn":"150","min_occr_url":"http://dnr-mrn.gnb.ca/MineralOccurrence/default.aspx?componentID=5&urn=150","lon":"-65.98496999999999","commodities":null,"lat":"47.40056"},"geometry":{"type":"Point","coordinates":[-65.98496903227338,47.40056967318306]}},{"type":"Feature","properties":{"name":"Crabbe Mountain As &quot;I&quot;","objectid":"3077266","urn":"151","min_occr_url":"http://dnr-mrn.gnb.ca/MineralOccurrence/default.aspx?componentID=5&urn=151","lon":"-67.10584","commodities":"As","lat":"46.1266"},"geometry":{"type":"Point","coordinates":[-67.10583924375113,46.12660946686561]}},{"type":"Feature","properties":{"name":"Maple Ridge","objectid":"3077267","urn":"152","min_occr_url":"http://dnr-mrn.gnb.ca/MineralOccurrence/default.aspx?componentID=5&urn=152","lon":"-67.21413","commodities":"Mo, W","lat":"46.10002"},"geometry":{"type":"Point","coordinates":[-67.21412932044765,46.10002945989223]}},{"type":"Feature","properties":{"name":"Pinder","objectid":"3077268","urn":"153","min_occr_url":"http://dnr-mrn.gnb.ca/MineralOccurrence/default.aspx?componentID=5&urn=153","lon":"-67.24108","commodities":"Pb, Zn","lat":"46.04168"},"geometry":{"type":"Point","coordinates":[-67.24107938107029,46.04168939813184]}},{"type":"Feature","properties":{"name":"Lower Caverhill South","objectid":"3077269","urn":"154","min_occr_url":"http://dnr-mrn.gnb.ca/MineralOccurrence/default.aspx?componentID=5&urn=154","lon":"-67.11802999999999","commodities":"Cu, Mo","lat":"46.00613"},"geometry":{"type":"Point","coordinates":[-67.11802933042243,46.00613938618667]}},{"type":"Feature","properties":{"name":"Waterville Stibnite &quot;I&quot;","objectid":"3077270","urn":"155","min_occr_url":"http://dnr-mrn.gnb.ca/MineralOccurrence/default.aspx?componentID=5&urn=155","lon":"-67.34830000000001","commodities":"Sb","lat":"46.07363"},"geometry":{"type":"Point","coordinates":[-67.34829936138333,46.07363941599744]}},{"type":"Feature","properties":{"name":"Blue Mountain","objectid":"3077271","urn":"156","min_occr_url":"http://dnr-mrn.gnb.ca/MineralOccurrence/default.aspx?componentID=5&urn=156","lon":"-67.21663","commodities":null,"lat":"47.083349999999996"},"geometry":{"type":"Point","coordinates":[-67.21662942218725,47.083359588650815]}},{"type":"Feature","properties":{"name":"Pabineau","objectid":"3077272","urn":"157","min_occr_url":"http://dnr-mrn.gnb.ca/MineralOccurrence/default.aspx?componentID=5&urn=157","lon":"-65.91884999999999","commodities":"Cu, Pb, Zn","lat":"47.44918"},"geometry":{"type":"Point","coordinates":[-65.91884901312746,47.449189670582335]}},{"type":"Feature","properties":{"name":"McDonough Trend B","objectid":"3077273","urn":"158","min_occr_url":"http://dnr-mrn.gnb.ca/MineralOccurrence/default.aspx?componentID=5&urn=158","lon":"-65.871462","commodities":"Cu, Pb, Zn","lat":"47.327447"},"geometry":{"type":"Point","coordinates":[-65.87146087264819,47.32745671469376]}},{"type":"Feature","properties":{"name":"Captain","objectid":"3077274","urn":"159","min_occr_url":"http://dnr-mrn.gnb.ca/MineralOccurrence/default.aspx?componentID=5&urn=159","lon":"-65.87828999999999","commodities":"Ag, Co, Cu","lat":"47.28362"},"geometry":{"type":"Point","coordinates":[-65.87828893875198,47.283629650721046]}},{"type":"Feature","properties":{"name":"Smith Brook","objectid":"3077275","urn":"160","min_occr_url":"http://dnr-mrn.gnb.ca/MineralOccurrence/default.aspx?componentID=5&urn=160","lon":"-67.21914","commodities":"Cu, Zn","lat":"46.16447"},"geometry":{"type":"Point","coordinates":[-67.21913928292456,46.16447942596693]}},{"type":"Feature","properties":{"name":"Molasses Brook *","objectid":"3077276","urn":"161","min_occr_url":"http://dnr-mrn.gnb.ca/MineralOccurrence/default.aspx?componentID=5&urn=161","lon":"-66.7499661","commodities":"Fe","lat":"46.5991959"},"geometry":{"type":"Point","coordinates":[-66.74996526306911,46.599205436846844]}},{"type":"Feature","properties":{"name":"Clearwater Brook","objectid":"3077277","urn":"162","min_occr_url":"http://dnr-mrn.gnb.ca/MineralOccurrence/default.aspx?componentID=5&urn=162","lon":"-66.74746999999999","commodities":"Cu","lat":"46.60724"},"geometry":{"type":"Point","coordinates":[-66.74746922600845,46.607249501988704]}},{"type":"Feature","properties":{"name":"Rocky Brook East","objectid":"3077278","urn":"163","min_occr_url":"http://dnr-mrn.gnb.ca/MineralOccurrence/default.aspx?componentID=5&urn=163","lon":"-66.62774","commodities":"Cu","lat":"46.65141"},"geometry":{"type":"Point","coordinates":[-66.6277391067569,46.65141957015272]}},{"type":"Feature","properties":{"name":"Shear Mine","objectid":"3077279","urn":"164","min_occr_url":"http://dnr-mrn.gnb.ca/MineralOccurrence/default.aspx?componentID=5&urn=164","lon":"-66.5583","commodities":"Ag, Au","lat":"45.45001"},"geometry":{"type":"Point","coordinates":[-66.55829913355059,45.45001931068046]}},{"type":"Feature","properties":{"name":"Taylor Brook Road","objectid":"3077280","urn":"165","min_occr_url":"http://dnr-mrn.gnb.ca/MineralOccurrence/default.aspx?componentID=5&urn=165","lon":"-65.82524","commodities":"Ag, Cu, Pb, Zn","lat":"47.346959999999996"},"geometry":{"type":"Point","coordinates":[-65.8252388732131,47.34696966533355]}},{"type":"Feature","properties":{"name":"Pabineau River 3","objectid":"3077281","urn":"166","min_occr_url":"http://dnr-mrn.gnb.ca/MineralOccurrence/default.aspx?componentID=5&urn=166","lon":"-65.80080000000001","commodities":null,"lat":"47.44807"},"geometry":{"type":"Point","coordinates":[-65.80079892169842,47.44807969331343]}},{"type":"Feature","properties":{"name":"Gordon Meadow Brook","objectid":"3077282","urn":"167","min_occr_url":"http://dnr-mrn.gnb.ca/MineralOccurrence/default.aspx?componentID=5&urn=167","lon":"-65.84524","commodities":"Pb, Zn","lat":"47.31196"},"geometry":{"type":"Point","coordinates":[-65.84523891263737,47.31196971816233]}},{"type":"Feature","properties":{"name":"McDonough West (Trend A)","objectid":"3077283","urn":"168","min_occr_url":"http://dnr-mrn.gnb.ca/MineralOccurrence/default.aspx?componentID=5&urn=168","lon":"-65.89191","commodities":"Ag, Pb, Zn","lat":"47.32335"},"geometry":{"type":"Point","coordinates":[-65.89190897231578,47.32335972045812]}},{"type":"Feature","properties":{"name":"Captain West","objectid":"3077284","urn":"169","min_occr_url":"http://dnr-mrn.gnb.ca/MineralOccurrence/default.aspx?componentID=5&urn=169","lon":"-65.91830999999999","commodities":"Pb, Zn","lat":"47.2875"},"geometry":{"type":"Point","coordinates":[-65.9183089689666,47.28750966910947]}},{"type":"Feature","properties":{"name":"Captain North Extension","objectid":"3077285","urn":"170","min_occr_url":"http://dnr-mrn.gnb.ca/MineralOccurrence/default.aspx?componentID=5&urn=170","lon":"-65.88468999999999","commodities":"Ag, Pb, Zn","lat":"47.29557"},"geometry":{"type":"Point","coordinates":[-65.88468887724173,47.29557968541755]}},{"type":"Feature","properties":{"name":"Mcbean Brook Fluorite","objectid":"3077286","urn":"171","min_occr_url":"http://dnr-mrn.gnb.ca/MineralOccurrence/default.aspx?componentID=5&urn=171","lon":"-66.63747","commodities":"F","lat":"46.54224"},"geometry":{"type":"Point","coordinates":[-66.63746916706691,46.542249564537606]}},{"type":"Feature","properties":{"name":"Lower Birch Island","objectid":"3077287","urn":"172","min_occr_url":"http://dnr-mrn.gnb.ca/MineralOccurrence/default.aspx?componentID=5&urn=172","lon":"-66.5708","commodities":"Ba, Fe, Mn","lat":"46.56863"},"geometry":{"type":"Point","coordinates":[-66.57079909401504,46.568639500287254]}},{"type":"Feature","properties":{"name":"Sand Brook","objectid":"3077288","urn":"173","min_occr_url":"http://dnr-mrn.gnb.ca/MineralOccurrence/default.aspx?componentID=5&urn=173","lon":"-66.57218999999999","commodities":"Au","lat":"46.56169"},"geometry":{"type":"Point","coordinates":[-66.57218920240207,46.56169952084945]}},{"type":"Feature","properties":{"name":"Southwest Miramichi Lead *","objectid":"3077289","urn":"174","min_occr_url":"http://dnr-mrn.gnb.ca/MineralOccurrence/default.aspx?componentID=5&urn=174","lon":"-66.86246","commodities":"Pb, Zn","lat":"46.54002"},"geometry":{"type":"Point","coordinates":[-66.8624592156264,46.540029549826116]}},{"type":"Feature","properties":{"name":"Slate Island Brook *","objectid":"3077290","urn":"175","min_occr_url":"http://dnr-mrn.gnb.ca/MineralOccurrence/default.aspx?componentID=5&urn=175","lon":"-66.88468999999999","commodities":null,"lat":"46.53835"},"geometry":{"type":"Point","coordinates":[-66.8846893010312,46.53835951352895]}},{"type":"Feature","properties":{"name":"Mclean Brook South","objectid":"3077291","urn":"176","min_occr_url":"http://dnr-mrn.gnb.ca/MineralOccurrence/default.aspx?componentID=5&urn=176","lon":"-66.87581","commodities":null,"lat":"46.55807"},"geometry":{"type":"Point","coordinates":[-66.87580918398716,46.558079526170765]}},{"type":"Feature","properties":{"name":"Southwest Miramichi East","objectid":"3077292","urn":"177","min_occr_url":"http://dnr-mrn.gnb.ca/MineralOccurrence/default.aspx?componentID=5&urn=177","lon":"-66.60664","commodities":"Pb","lat":"46.59502"},"geometry":{"type":"Point","coordinates":[-66.60663919824412,46.59502956891255]}},{"type":"Feature","properties":{"name":"Three Mile Lake","objectid":"3077293","urn":"178","min_occr_url":"http://dnr-mrn.gnb.ca/MineralOccurrence/default.aspx?componentID=5&urn=178","lon":"-66.68220000000001","commodities":"Cu","lat":"46.62446"},"geometry":{"type":"Point","coordinates":[-66.68219918436864,46.624469576981554]}},{"type":"Feature","properties":{"name":"Rocky Brook Fluorite *","objectid":"3077294","urn":"179","min_occr_url":"http://dnr-mrn.gnb.ca/MineralOccurrence/default.aspx?componentID=5&urn=179","lon":"-66.61025","commodities":"F","lat":"46.61446"},"geometry":{"type":"Point","coordinates":[-66.61024911064558,46.61446955646065]}},{"type":"Feature","properties":{"name":"Sisters Mountain","objectid":"3077295","urn":"180","min_occr_url":"http://dnr-mrn.gnb.ca/MineralOccurrence/default.aspx?componentID=5&urn=180","lon":"-66.65496999999999","commodities":"Cu, Zn","lat":"46.60697"},"geometry":{"type":"Point","coordinates":[-66.6549691668705,46.60697958314774]}},{"type":"Feature","properties":{"name":"Dicks Island","objectid":"3077296","urn":"181","min_occr_url":"http://dnr-mrn.gnb.ca/MineralOccurrence/default.aspx?componentID=5&urn=181","lon":"-65.69493","commodities":null,"lat":"47.45404"},"geometry":{"type":"Point","coordinates":[-65.69492891273678,47.454049735091516]}},{"type":"Feature","properties":{"name":"Sugary Brook","objectid":"3077297","urn":"182","min_occr_url":"http://dnr-mrn.gnb.ca/MineralOccurrence/default.aspx?componentID=5&urn=182","lon":"-65.73857","commodities":"Mo","lat":"47.499179999999996"},"geometry":{"type":"Point","coordinates":[-65.73856883529896,47.49918974669472]}},{"type":"Feature","properties":{"name":"Portage River UDD &quot;I&quot;","objectid":"3077298","urn":"183","min_occr_url":"http://dnr-mrn.gnb.ca/MineralOccurrence/default.aspx?componentID=5&urn=183","lon":"-65.8208","commodities":"Zn","lat":"47.30057"},"geometry":{"type":"Point","coordinates":[-65.82079897148418,47.30057971297662]}},{"type":"Feature","properties":{"name":"Nepisiguit Brook North","objectid":"3077299","urn":"184","min_occr_url":"http://dnr-mrn.gnb.ca/MineralOccurrence/default.aspx?componentID=5&urn=184","lon":"-65.91718999999999","commodities":"Zn","lat":"47.35585"},"geometry":{"type":"Point","coordinates":[-65.91718898974513,47.35585970202342]}},{"type":"Feature","properties":{"name":"Nepisiguit Brook","objectid":"3077300","urn":"185","min_occr_url":"http://dnr-mrn.gnb.ca/MineralOccurrence/default.aspx?componentID=5&urn=185","lon":"-65.88135","commodities":"Cu","lat":"47.343900000000005"},"geometry":{"type":"Point","coordinates":[-65.88134887645967,47.3439096768562]}},{"type":"Feature","properties":{"name":"Flat Landing Brook East","objectid":"3077301","urn":"186","min_occr_url":"http://dnr-mrn.gnb.ca/MineralOccurrence/default.aspx?componentID=5&urn=186","lon":"-65.85663","commodities":"Pb, Zn","lat":"47.3964"},"geometry":{"type":"Point","coordinates":[-65.85662894399023,47.39640971814142]}},{"type":"Feature","properties":{"name":"Falls Brook East","objectid":"3077302","urn":"187","min_occr_url":"http://dnr-mrn.gnb.ca/MineralOccurrence/default.aspx?componentID=5&urn=187","lon":"-66.58496","commodities":"Pb, Zn","lat":"46.5903"},"geometry":{"type":"Point","coordinates":[-66.58495920500522,46.59030956122879]}},{"type":"Feature","properties":{"name":"Brummagen Brook Bog","objectid":"3077303","urn":"188","min_occr_url":"http://dnr-mrn.gnb.ca/MineralOccurrence/default.aspx?componentID=5&urn=188","lon":"-67.29386","commodities":"Mn","lat":"46.39002"},"geometry":{"type":"Point","coordinates":[-67.29385935383934,46.390029523849655]}},{"type":"Feature","properties":{"name":"Coldstream","objectid":"3077304","urn":"189","min_occr_url":"http://dnr-mrn.gnb.ca/MineralOccurrence/default.aspx?componentID=5&urn=189","lon":"-67.45553","commodities":"Sb","lat":"46.3553"},"geometry":{"type":"Point","coordinates":[-67.45552948656615,46.355309494576936]}},{"type":"Feature","properties":{"name":"Tompkins Prospect *","objectid":"3077305","urn":"190","min_occr_url":"http://dnr-mrn.gnb.ca/MineralOccurrence/default.aspx?componentID=5&urn=190","lon":"-67.49302","commodities":"Fe, Mn","lat":"46.306129999999996"},"geometry":{"type":"Point","coordinates":[-67.49301939355928,46.30613947095107]}},{"type":"Feature","properties":{"name":"Glassville *","objectid":"3077306","urn":"191","min_occr_url":"http://dnr-mrn.gnb.ca/MineralOccurrence/default.aspx?componentID=5&urn=191","lon":"-67.42385999999999","commodities":"Fe, Mn","lat":"46.478629999999995"},"geometry":{"type":"Point","coordinates":[-67.42385940202792,46.47863947489866]}},{"type":"Feature","properties":{"name":"MacIntosh Brook","objectid":"3077307","urn":"192","min_occr_url":"http://dnr-mrn.gnb.ca/MineralOccurrence/default.aspx?componentID=5&urn=192","lon":"-67.27636","commodities":"Cu","lat":"46.353339999999996"},"geometry":{"type":"Point","coordinates":[-67.27635932377862,46.353349443458804]}},{"type":"Feature","properties":{"name":"South Renous River","objectid":"3077308","urn":"193","min_occr_url":"http://dnr-mrn.gnb.ca/MineralOccurrence/default.aspx?componentID=5&urn=193","lon":"-66.24996999999999","commodities":"U","lat":"46.731429999999996"},"geometry":{"type":"Point","coordinates":[-66.24996901069048,46.73143960751877]}},{"type":"Feature","properties":{"name":"Doaktown Bog Mn","objectid":"3077309","urn":"194","min_occr_url":"http://dnr-mrn.gnb.ca/MineralOccurrence/default.aspx?componentID=5&urn=194","lon":"-66.13747","commodities":"Mn","lat":"46.55058"},"geometry":{"type":"Point","coordinates":[-66.13746900507849,46.55058952283939]}},{"type":"Feature","properties":{"name":"Clearwater Bog Iron &quot;I&quot;","objectid":"3077310","urn":"195","min_occr_url":"http://dnr-mrn.gnb.ca/MineralOccurrence/default.aspx?componentID=5&urn=195","lon":"-66.4999676","commodities":"Fe","lat":"46.3666955"},"geometry":{"type":"Point","coordinates":[-66.49996674201839,46.36670502474312]}},{"type":"Feature","properties":{"name":"New Bandon","objectid":"3077311","urn":"196","min_occr_url":"http://dnr-mrn.gnb.ca/MineralOccurrence/default.aspx?componentID=5&urn=196","lon":"-65.33913","commodities":null,"lat":"47.747800000000005"},"geometry":{"type":"Point","coordinates":[-65.33912872199434,47.74780979981792]}},{"type":"Feature","properties":{"name":"Stonehaven","objectid":"3077312","urn":"197","min_occr_url":"http://dnr-mrn.gnb.ca/MineralOccurrence/default.aspx?componentID=5&urn=197","lon":"-65.36246","commodities":null,"lat":"47.75195"},"geometry":{"type":"Point","coordinates":[-65.36245876175184,47.751959727238514]}},{"type":"Feature","properties":{"name":"Rough Waters","objectid":"3077313","urn":"198","min_occr_url":"http://dnr-mrn.gnb.ca/MineralOccurrence/default.aspx?componentID=5&urn=198","lon":"-65.64162999999999","commodities":"Mo","lat":"47.5728"},"geometry":{"type":"Point","coordinates":[-65.64162889180764,47.572809705231194]}},{"type":"Feature","properties":{"name":"Little River 3","objectid":"3077314","urn":"199","min_occr_url":"http://dnr-mrn.gnb.ca/MineralOccurrence/default.aspx?componentID=5&urn=199","lon":"-65.7333","commodities":"Mo","lat":"47.556400000000004"},"geometry":{"type":"Point","coordinates":[-65.73329889511783,47.55640970836907]}},{"type":"Feature","properties":{"name":"Ste. Anne","objectid":"3077315","urn":"200","min_occr_url":"http://dnr-mrn.gnb.ca/MineralOccurrence/default.aspx?componentID=5&urn=200","lon":"-65.72829","commodities":null,"lat":"47.63557"},"geometry":{"type":"Point","coordinates":[-65.7282888291173,47.635579758040805]}},{"type":"Feature","properties":{"name":"West Bathurst","objectid":"3077316","urn":"201","min_occr_url":"http://dnr-mrn.gnb.ca/MineralOccurrence/default.aspx?componentID=5&urn=201","lon":"-65.66663","commodities":"Mo","lat":"47.62502"},"geometry":{"type":"Point","coordinates":[-65.66662882860096,47.62502976794683]}},{"type":"Feature","properties":{"name":"Peters River West","objectid":"3077317","urn":"202","min_occr_url":"http://dnr-mrn.gnb.ca/MineralOccurrence/default.aspx?componentID=5&urn=202","lon":"-65.7206","commodities":null,"lat":"47.658300000000004"},"geometry":{"type":"Point","coordinates":[-65.72059888580846,47.65830970377028]}},{"type":"Feature","properties":{"name":"Gaythorne Bog","objectid":"3077318","urn":"203","min_occr_url":"http://dnr-mrn.gnb.ca/MineralOccurrence/default.aspx?componentID=5&urn=203","lon":"-65.0333","commodities":null,"lat":"47.375569999999996"},"geometry":{"type":"Point","coordinates":[-65.03329869920265,47.37557969401111]}},{"type":"Feature","properties":{"name":"Lawson Brook","objectid":"3077319","urn":"204","min_occr_url":"http://dnr-mrn.gnb.ca/MineralOccurrence/default.aspx?componentID=5&urn=204","lon":"-65.66067","commodities":"Pb, Zn","lat":"47.40847"},"geometry":{"type":"Point","coordinates":[-65.66066882766285,47.408479709136756]}},{"type":"Feature","properties":{"name":"Russell","objectid":"3077320","urn":"205","min_occr_url":"http://dnr-mrn.gnb.ca/MineralOccurrence/default.aspx?componentID=5&urn=205","lon":"-65.62052","commodities":null,"lat":"47.35724"},"geometry":{"type":"Point","coordinates":[-65.62051879980064,47.357249711397685]}},{"type":"Feature","properties":{"name":"Cold Branch Brook","objectid":"3077321","urn":"206","min_occr_url":"http://dnr-mrn.gnb.ca/MineralOccurrence/default.aspx?componentID=5&urn=206","lon":"-65.68303","commodities":"Pb, Zn","lat":"47.4498"},"geometry":{"type":"Point","coordinates":[-65.68302891745294,47.44980974912524]}},{"type":"Feature","properties":{"name":"Sisson Brook - Zones 1 &amp; 2","objectid":"3077322","urn":"207","min_occr_url":"http://dnr-mrn.gnb.ca/MineralOccurrence/default.aspx?componentID=5&urn=207","lon":"-67.04469","commodities":"Cu, Mo, W","lat":"46.37502"},"geometry":{"type":"Point","coordinates":[-67.04468927939136,46.37502949542275]}},{"type":"Feature","properties":{"name":"Sisson Brook-zone 3","objectid":"3077323","urn":"208","min_occr_url":"http://dnr-mrn.gnb.ca/MineralOccurrence/default.aspx?componentID=5&urn=208","lon":"-67.04414","commodities":"Cu, Mo, W","lat":"46.368069999999996"},"geometry":{"type":"Point","coordinates":[-67.0441393550843,46.36807946170748]}},{"type":"Feature","properties":{"name":"Nashwaak","objectid":"3077324","urn":"209","min_occr_url":"http://dnr-mrn.gnb.ca/MineralOccurrence/default.aspx?componentID=5&urn=209","lon":"-67.0297","commodities":"Ag, Au, Cu, Pb, Zn","lat":"46.37169"},"geometry":{"type":"Point","coordinates":[-67.02969928509167,46.37169946250859]}},{"type":"Feature","properties":{"name":"Becaguimec Lake","objectid":"3077325","urn":"210","min_occr_url":"http://dnr-mrn.gnb.ca/MineralOccurrence/default.aspx?componentID=5&urn=210","lon":"-67.19775","commodities":"Cu, Ni","lat":"46.27391"},"geometry":{"type":"Point","coordinates":[-67.19774939897302,46.27391944200915]}},{"type":"Feature","properties":{"name":"Rocky Brook Lake &quot;I&quot;","objectid":"3077326","urn":"211","min_occr_url":"http://dnr-mrn.gnb.ca/MineralOccurrence/default.aspx?componentID=5&urn=211","lon":"-66.96135","commodities":"Zn","lat":"46.37169"},"geometry":{"type":"Point","coordinates":[-66.96134925426418,46.37169950528604]}},{"type":"Feature","properties":{"name":"Caraquet Bay Iron *","objectid":"3077327","urn":"212","min_occr_url":"http://dnr-mrn.gnb.ca/MineralOccurrence/default.aspx?componentID=5&urn=212","lon":"-65.04133999999999","commodities":null,"lat":"47.77307"},"geometry":{"type":"Point","coordinates":[-65.0413386702876,47.77307979183536]}},{"type":"Feature","properties":{"name":"Grand Anse","objectid":"3077328","urn":"213","min_occr_url":"http://dnr-mrn.gnb.ca/MineralOccurrence/default.aspx?componentID=5&urn=213","lon":"-65.23530000000001","commodities":null,"lat":"47.802279999999996"},"geometry":{"type":"Point","coordinates":[-65.23529874609936,47.802289771619414]}},{"type":"Feature","properties":{"name":"Rocky Brook Iron","objectid":"3077329","urn":"214","min_occr_url":"http://dnr-mrn.gnb.ca/MineralOccurrence/default.aspx?componentID=5&urn=214","lon":"-66.92913","commodities":"Fe, Mn","lat":"46.331959999999995"},"geometry":{"type":"Point","coordinates":[-66.9291292955869,46.33196946684136]}},{"type":"Feature","properties":{"name":"Lower Hayden Brook A","objectid":"3077330","urn":"215","min_occr_url":"http://dnr-mrn.gnb.ca/MineralOccurrence/default.aspx?componentID=5&urn=215","lon":"-66.75052","commodities":"Ag, Cu, Pb, Zn","lat":"46.480579999999996"},"geometry":{"type":"Point","coordinates":[-66.75051919007686,46.48058947875028]}},{"type":"Feature","properties":{"name":"Brewer Brook","objectid":"3077331","urn":"216","min_occr_url":"http://dnr-mrn.gnb.ca/MineralOccurrence/default.aspx?componentID=5&urn=216","lon":"-66.73107999999999","commodities":"Ag, Cu, Pb, Zn","lat":"46.484469999999995"},"geometry":{"type":"Point","coordinates":[-66.73107912688806,46.48447951179226]}},{"type":"Feature","properties":{"name":"Napadogan Pyrite","objectid":"3077332","urn":"217","min_occr_url":"http://dnr-mrn.gnb.ca/MineralOccurrence/default.aspx?componentID=5&urn=217","lon":"-66.91664","commodities":"Ag, Au","lat":"46.450019999999995"},"geometry":{"type":"Point","coordinates":[-66.91663927965503,46.45002954557238]}},{"type":"Feature","properties":{"name":"East Long Lake","objectid":"3077333","urn":"218","min_occr_url":"http://dnr-mrn.gnb.ca/MineralOccurrence/default.aspx?componentID=5&urn=218","lon":"-66.54802","commodities":"Bi, Sn","lat":"45.37696"},"geometry":{"type":"Point","coordinates":[-66.54801900768031,45.37696934937663]}},{"type":"Feature","properties":{"name":"Zeland Station","objectid":"3077334","urn":"219","min_occr_url":"http://dnr-mrn.gnb.ca/MineralOccurrence/default.aspx?componentID=5&urn=219","lon":"-66.9697","commodities":"Be, Mo, W","lat":"46.05919"},"geometry":{"type":"Point","coordinates":[-66.96969927796488,46.05919941255457]}},{"type":"Feature","properties":{"name":"Jones Forks Bog","objectid":"3077335","urn":"220","min_occr_url":"http://dnr-mrn.gnb.ca/MineralOccurrence/default.aspx?componentID=5&urn=220","lon":"-66.86664","commodities":"Mn","lat":"46.081129999999995"},"geometry":{"type":"Point","coordinates":[-66.86663917654273,46.081139483699715]}},{"type":"Feature","properties":{"name":"Northeast Nackawic River","objectid":"3077336","urn":"221","min_occr_url":"http://dnr-mrn.gnb.ca/MineralOccurrence/default.aspx?componentID=5&urn=221","lon":"-67.19191","commodities":"Ag","lat":"46.151129999999995"},"geometry":{"type":"Point","coordinates":[-67.1919093196075,46.15113945064175]}},{"type":"Feature","properties":{"name":"Nackawic Fluorite &#39;I&#39;","objectid":"3077337","urn":"222","min_occr_url":"http://dnr-mrn.gnb.ca/MineralOccurrence/default.aspx?componentID=5&urn=222","lon":"-67.2333","commodities":"F","lat":"46.01168"},"geometry":{"type":"Point","coordinates":[-67.23329938268672,46.01168939414272]}},{"type":"Feature","properties":{"name":"California Lake - 32 south zone","objectid":"3077338","urn":"223","min_occr_url":"http://dnr-mrn.gnb.ca/MineralOccurrence/default.aspx?componentID=5&urn=223","lon":"-66.13552","commodities":"Pb, Zn","lat":"47.45196"},"geometry":{"type":"Point","coordinates":[-66.13551903404364,47.451969742384904]}},{"type":"Feature","properties":{"name":"California Lake - 68 south zone","objectid":"3077339","urn":"224","min_occr_url":"http://dnr-mrn.gnb.ca/MineralOccurrence/default.aspx?componentID=5&urn=224","lon":"-66.14192","commodities":"Pb, Zn","lat":"47.441959999999995"},"geometry":{"type":"Point","coordinates":[-66.14191907920971,47.44196966654495]}},{"type":"Feature","properties":{"name":"Gravel Hill","objectid":"3077340","urn":"225","min_occr_url":"http://dnr-mrn.gnb.ca/MineralOccurrence/default.aspx?componentID=5&urn=225","lon":"-67.23024","commodities":"Ag, Cu, Pb, Zn","lat":"46.13863"},"geometry":{"type":"Point","coordinates":[-67.23023929768507,46.13863943062004]}},{"type":"Feature","properties":{"name":"Springfield I","objectid":"3077341","urn":"226","min_occr_url":"http://dnr-mrn.gnb.ca/MineralOccurrence/default.aspx?componentID=5&urn=226","lon":"-67.05275","commodities":"Mo","lat":"46.01806"},"geometry":{"type":"Point","coordinates":[-67.05274932587977,46.018069471352234]}},{"type":"Feature","properties":{"name":"Taffy Lake","objectid":"3077342","urn":"227","min_occr_url":"http://dnr-mrn.gnb.ca/MineralOccurrence/default.aspx?componentID=5&urn=227","lon":"-67.15523999999999","commodities":"Ag, Pb, Zn","lat":"46.17167"},"geometry":{"type":"Point","coordinates":[-67.15523933141189,46.17167942238988]}},{"type":"Feature","properties":{"name":"Saint John River Gold","objectid":"3077343","urn":"228","min_occr_url":"http://dnr-mrn.gnb.ca/MineralOccurrence/default.aspx?componentID=5&urn=228","lon":"-67.55053","commodities":"Au","lat":"46.09836"},"geometry":{"type":"Point","coordinates":[-67.55052945502318,46.09836944135533]}},{"type":"Feature","properties":{"name":"Upper Northampton Gold","objectid":"3077344","urn":"229","min_occr_url":"http://dnr-mrn.gnb.ca/MineralOccurrence/default.aspx?componentID=5&urn=229","lon":"-67.54831","commodities":"Au","lat":"46.090019999999996"},"geometry":{"type":"Point","coordinates":[-67.54830946858421,46.09002940744594]}},{"type":"Feature","properties":{"name":"Grafton","objectid":"3077345","urn":"230","min_occr_url":"http://dnr-mrn.gnb.ca/MineralOccurrence/default.aspx?componentID=5&urn=230","lon":"-67.56719","commodities":"Au, Cu","lat":"46.136669999999995"},"geometry":{"type":"Point","coordinates":[-67.56718943475613,46.136679454484515]}},{"type":"Feature","properties":{"name":"Upper Northampton","objectid":"3077346","urn":"231","min_occr_url":"http://dnr-mrn.gnb.ca/MineralOccurrence/default.aspx?componentID=5&urn=231","lon":"-67.52775","commodities":"Cu","lat":"46.10612"},"geometry":{"type":"Point","coordinates":[-67.52774950641627,46.10612944635591]}},{"type":"Feature","properties":{"name":"Connell Mountain","objectid":"3077347","urn":"232","min_occr_url":"http://dnr-mrn.gnb.ca/MineralOccurrence/default.aspx?componentID=5&urn=232","lon":"-67.51942","commodities":"Au, Cu","lat":"46.12974"},"geometry":{"type":"Point","coordinates":[-67.51941939426251,46.129749446484105]}},{"type":"Feature","properties":{"name":"Upper Northampton Barite","objectid":"3077348","urn":"233","min_occr_url":"http://dnr-mrn.gnb.ca/MineralOccurrence/default.aspx?componentID=5&urn=233","lon":"-67.54997","commodities":"Ba","lat":"46.09502"},"geometry":{"type":"Point","coordinates":[-67.54996944085724,46.09502943903365]}},{"type":"Feature","properties":{"name":"Oak Mountain","objectid":"3077349","urn":"234","min_occr_url":"http://dnr-mrn.gnb.ca/MineralOccurrence/default.aspx?componentID=5&urn=234","lon":"-67.64914999999999","commodities":"Ag, Pb, Sb","lat":"46.01141"},"geometry":{"type":"Point","coordinates":[-67.64914950315001,46.011419427842675]}},{"type":"Feature","properties":{"name":"South Newbridge","objectid":"3077350","urn":"235","min_occr_url":"http://dnr-mrn.gnb.ca/MineralOccurrence/default.aspx?componentID=5&urn=235","lon":"-67.52441999999999","commodities":"Ba","lat":"46.160579999999996"},"geometry":{"type":"Point","coordinates":[-67.52441943429594,46.16058942124689]}},{"type":"Feature","properties":{"name":"Wright Brook *","objectid":"3077351","urn":"236","min_occr_url":"http://dnr-mrn.gnb.ca/MineralOccurrence/default.aspx?componentID=5&urn=236","lon":"-67.54220000000001","commodities":"Ag, Cu, Pb, Zn","lat":"46.14196"},"geometry":{"type":"Point","coordinates":[-67.5421993937,46.141969403341676]}},{"type":"Feature","properties":{"name":"Island Lake North","objectid":"3077352","urn":"237","min_occr_url":"http://dnr-mrn.gnb.ca/MineralOccurrence/default.aspx?componentID=5&urn=237","lon":"-66.0172","commodities":"Zn","lat":"47.26806"},"geometry":{"type":"Point","coordinates":[-66.01719900386861,47.268069637763816]}},{"type":"Feature","properties":{"name":"Nepisiguit River Iron &quot;I&quot;","objectid":"3077353","urn":"238","min_occr_url":"http://dnr-mrn.gnb.ca/MineralOccurrence/default.aspx?componentID=5&urn=238","lon":"-66.08024999999999","commodities":null,"lat":"47.37668"},"geometry":{"type":"Point","coordinates":[-66.08024900061439,47.376689663746525]}},{"type":"Feature","properties":{"name":"Nepisiguit C","objectid":"3077354","urn":"239","min_occr_url":"http://dnr-mrn.gnb.ca/MineralOccurrence/default.aspx?componentID=5&urn=239","lon":"-66.04136","commodities":"Cu, Pb, Zn","lat":"47.373619999999995"},"geometry":{"type":"Point","coordinates":[-66.04135901925495,47.37362969320645]}},{"type":"Feature","properties":{"name":"Nepisiguit B","objectid":"3077355","urn":"240","min_occr_url":"http://dnr-mrn.gnb.ca/MineralOccurrence/default.aspx?componentID=5&urn=240","lon":"-66.0258","commodities":"Pb, Zn","lat":"47.37417"},"geometry":{"type":"Point","coordinates":[-66.02579900931214,47.37417965060361]}},{"type":"Feature","properties":{"name":"Nepisiguit A","objectid":"3077356","urn":"241","min_occr_url":"http://dnr-mrn.gnb.ca/MineralOccurrence/default.aspx?componentID=5&urn=241","lon":"-66.03052","commodities":"Pb, Zn","lat":"47.37889"},"geometry":{"type":"Point","coordinates":[-66.0305190408332,47.37889969278804]}},{"type":"Feature","properties":{"name":"Canoe Landing Lake","objectid":"3077357","urn":"242","min_occr_url":"http://dnr-mrn.gnb.ca/MineralOccurrence/default.aspx?componentID=5&urn=242","lon":"-66.10692","commodities":"Pb, Zn","lat":"47.4114"},"geometry":{"type":"Point","coordinates":[-66.10691900931543,47.41140969157626]}},{"type":"Feature","properties":{"name":"Swamp Lake","objectid":"3077358","urn":"243","min_occr_url":"http://dnr-mrn.gnb.ca/MineralOccurrence/default.aspx?componentID=5&urn=243","lon":"-66.03856999999999","commodities":"Au, Cu","lat":"47.38807"},"geometry":{"type":"Point","coordinates":[-66.03856903102299,47.38807969900742]}},{"type":"Feature","properties":{"name":"Boucher Brook","objectid":"3077359","urn":"244","min_occr_url":"http://dnr-mrn.gnb.ca/MineralOccurrence/default.aspx?componentID=5&urn=244","lon":"-66.01468","commodities":"Pb, Zn","lat":"47.428619999999995"},"geometry":{"type":"Point","coordinates":[-66.01467892987954,47.42862973406429]}},{"type":"Feature","properties":{"name":"South Branch Forty Mile Brook","objectid":"3077360","urn":"245","min_occr_url":"http://dnr-mrn.gnb.ca/MineralOccurrence/default.aspx?componentID=5&urn=245","lon":"-66.18441","commodities":null,"lat":"47.43891"},"geometry":{"type":"Point","coordinates":[-66.18440900786531,47.43891968128316]}},{"type":"Feature","properties":{"name":"Hillman Copper","objectid":"3077361","urn":"246","min_occr_url":"http://dnr-mrn.gnb.ca/MineralOccurrence/default.aspx?componentID=5&urn=246","lon":"-67.53025","commodities":"Cu","lat":"46.01891"},"geometry":{"type":"Point","coordinates":[-67.53024943842189,46.0189194174163]}},{"type":"Feature","properties":{"name":"Tompkins","objectid":"3077362","urn":"247","min_occr_url":"http://dnr-mrn.gnb.ca/MineralOccurrence/default.aspx?componentID=5&urn=247","lon":"-67.53193","commodities":"Ag, Cu, Pb, Zn","lat":"46.03335"},"geometry":{"type":"Point","coordinates":[-67.53192939690585,46.033359452605076]}},{"type":"Feature","properties":{"name":"Dominion 1","objectid":"3077363","urn":"248","min_occr_url":"http://dnr-mrn.gnb.ca/MineralOccurrence/default.aspx?componentID=5&urn=248","lon":"-67.54665","commodities":"Ag, Cu, Zn","lat":"46.12891"},"geometry":{"type":"Point","coordinates":[-67.54664942261427,46.128919445315184]}},{"type":"Feature","properties":{"name":"Dugan Road-East","objectid":"3077364","urn":"249","min_occr_url":"http://dnr-mrn.gnb.ca/MineralOccurrence/default.aspx?componentID=5&urn=249","lon":"-67.57887","commodities":"Cu, W","lat":"46.054449999999996"},"geometry":{"type":"Point","coordinates":[-67.57886945519331,46.05445946123094]}},{"type":"Feature","properties":{"name":"Bedell Farm &amp; Poulles Farm","objectid":"3077365","urn":"250","min_occr_url":"http://dnr-mrn.gnb.ca/MineralOccurrence/default.aspx?componentID=5&urn=250","lon":"-67.57303","commodities":"Ag, Cu","lat":"46.11613"},"geometry":{"type":"Point","coordinates":[-67.57302942618139,46.11613948260088]}},{"type":"Feature","properties":{"name":"Silvermaque","objectid":"3077366","urn":"251","min_occr_url":"http://dnr-mrn.gnb.ca/MineralOccurrence/default.aspx?componentID=5&urn=251","lon":"-67.56942","commodities":"Cu","lat":"46.110859999999995"},"geometry":{"type":"Point","coordinates":[-67.56941950887204,46.11086945955895]}},{"type":"Feature","properties":{"name":"Stratmat S-1","objectid":"3077367","urn":"252","min_occr_url":"http://dnr-mrn.gnb.ca/MineralOccurrence/default.aspx?componentID=5&urn=252","lon":"-66.11581","commodities":"Ag, Cu, Pb, Zn","lat":"47.31308"},"geometry":{"type":"Point","coordinates":[-66.11580896282693,47.313089669973635]}},{"type":"Feature","properties":{"name":"Stratmat Central North","objectid":"3077368","urn":"253","min_occr_url":"http://dnr-mrn.gnb.ca/MineralOccurrence/default.aspx?componentID=5&urn=253","lon":"-66.11498","commodities":"Ag, Cu, Pb, Zn","lat":"47.31474"},"geometry":{"type":"Point","coordinates":[-66.11497907342286,47.31474964211826]}},{"type":"Feature","properties":{"name":"Stratmat Boundary West","objectid":"3077369","urn":"254","min_occr_url":"http://dnr-mrn.gnb.ca/MineralOccurrence/default.aspx?componentID=5&urn=254","lon":"-66.14026","commodities":"Pb, Zn","lat":"47.30724"},"geometry":{"type":"Point","coordinates":[-66.14025896592244,47.307249654241694]}},{"type":"Feature","properties":{"name":"Stratmat Boundary","objectid":"3077370","urn":"255","min_occr_url":"http://dnr-mrn.gnb.ca/MineralOccurrence/default.aspx?componentID=5&urn=255","lon":"-66.1322","commodities":"Cu, Pb, Zn","lat":"47.30724"},"geometry":{"type":"Point","coordinates":[-66.13219897957173,47.30724969408481]}},{"type":"Feature","properties":{"name":"Stratmat West Stringer Zone","objectid":"3077371","urn":"256","min_occr_url":"http://dnr-mrn.gnb.ca/MineralOccurrence/default.aspx?componentID=5&urn=256","lon":"-66.14025","commodities":null,"lat":"47.305569999999996"},"geometry":{"type":"Point","coordinates":[-66.14024906327242,47.30557968617965]}},{"type":"Feature","properties":{"name":"Heath Steele N-5","objectid":"3077372","urn":"257","min_occr_url":"http://dnr-mrn.gnb.ca/MineralOccurrence/default.aspx?componentID=5&urn=257","lon":"-66.13468999999999","commodities":"Ag, Cu, Pb, Zn","lat":"47.30473"},"geometry":{"type":"Point","coordinates":[-66.13468906594342,47.30473970196144]}},{"type":"Feature","properties":{"name":"Juniper Station","objectid":"3077373","urn":"258","min_occr_url":"http://dnr-mrn.gnb.ca/MineralOccurrence/default.aspx?componentID=5&urn=258","lon":"-67.13636","commodities":"Mo","lat":"46.57114"},"geometry":{"type":"Point","coordinates":[-67.13635932138979,46.57114953327532]}},{"type":"Feature","properties":{"name":"Diamond Lake","objectid":"3077374","urn":"259","min_occr_url":"http://dnr-mrn.gnb.ca/MineralOccurrence/default.aspx?componentID=5&urn=259","lon":"-67.03580000000001","commodities":null,"lat":"46.57835"},"geometry":{"type":"Point","coordinates":[-67.03579928438035,46.57835952434907]}},{"type":"Feature","properties":{"name":"Salmon Brook","objectid":"3077375","urn":"260","min_occr_url":"http://dnr-mrn.gnb.ca/MineralOccurrence/default.aspx?componentID=5&urn=260","lon":"-67.31997","commodities":null,"lat":"46.53391"},"geometry":{"type":"Point","coordinates":[-67.31996938092283,46.5339195286341]}},{"type":"Feature","properties":{"name":"Biggar Ridge","objectid":"3077376","urn":"261","min_occr_url":"http://dnr-mrn.gnb.ca/MineralOccurrence/default.aspx?componentID=5&urn=261","lon":"-67.25802999999999","commodities":null,"lat":"46.54391"},"geometry":{"type":"Point","coordinates":[-67.25802937178146,46.543919545207075]}},{"type":"Feature","properties":{"name":"Indian Brook","objectid":"3077377","urn":"262","min_occr_url":"http://dnr-mrn.gnb.ca/MineralOccurrence/default.aspx?componentID=5&urn=262","lon":"-67.42441","commodities":null,"lat":"46.73225"},"geometry":{"type":"Point","coordinates":[-67.42440948287208,46.73225951113988]}},{"type":"Feature","properties":{"name":"Centreville &quot;I&quot;","objectid":"3077378","urn":"263","min_occr_url":"http://dnr-mrn.gnb.ca/MineralOccurrence/default.aspx?componentID=5&urn=263","lon":"-67.6808","commodities":"Au","lat":"46.442800000000005"},"geometry":{"type":"Point","coordinates":[-67.68079955828233,46.44280948537416]}},{"type":"Feature","properties":{"name":"Stickney &quot;I&quot;","objectid":"3077379","urn":"264","min_occr_url":"http://dnr-mrn.gnb.ca/MineralOccurrence/default.aspx?componentID=5&urn=264","lon":"-67.52496","commodities":"Fe","lat":"46.39586"},"geometry":{"type":"Point","coordinates":[-67.52495941449719,46.39586945703714]}},{"type":"Feature","properties":{"name":"Benton","objectid":"3077380","urn":"265","min_occr_url":"http://dnr-mrn.gnb.ca/MineralOccurrence/default.aspx?componentID=5&urn=265","lon":"-67.60387","commodities":"Cu","lat":"46.00085"},"geometry":{"type":"Point","coordinates":[-67.60386942296869,46.00085938560083]}},{"type":"Feature","properties":{"name":"Connell Brook","objectid":"3077381","urn":"266","min_occr_url":"http://dnr-mrn.gnb.ca/MineralOccurrence/default.aspx?componentID=5&urn=266","lon":"-67.53303","commodities":"Cu","lat":"46.122800000000005"},"geometry":{"type":"Point","coordinates":[-67.53302944806805,46.122809438652894]}},{"type":"Feature","properties":{"name":"Woodstock Cu-Pb","objectid":"3077382","urn":"267","min_occr_url":"http://dnr-mrn.gnb.ca/MineralOccurrence/default.aspx?componentID=5&urn=267","lon":"-67.57692","commodities":"Cu, Pb","lat":"46.14725"},"geometry":{"type":"Point","coordinates":[-67.57691945485013,46.147259432605786]}},{"type":"Feature","properties":{"name":"Lilly Brook Cu-Mo","objectid":"3077383","urn":"268","min_occr_url":"http://dnr-mrn.gnb.ca/MineralOccurrence/default.aspx?componentID=5&urn=268","lon":"-67.56942","commodities":"Cu, Mo","lat":"46.0428"},"geometry":{"type":"Point","coordinates":[-67.56941950783661,46.042809405567375]}},{"type":"Feature","properties":{"name":"Lilly Brook Lead &quot;I&quot;","objectid":"3077384","urn":"269","min_occr_url":"http://dnr-mrn.gnb.ca/MineralOccurrence/default.aspx?componentID=5&urn=269","lon":"-67.56497999999999","commodities":"Pb","lat":"46.040839999999996"},"geometry":{"type":"Point","coordinates":[-67.56497942911233,46.040849382515205]}},{"type":"Feature","properties":{"name":"Plymouth","objectid":"3077385","urn":"270","min_occr_url":"http://dnr-mrn.gnb.ca/MineralOccurrence/default.aspx?componentID=5&urn=270","lon":"-67.66497","commodities":"Mn","lat":"46.1653"},"geometry":{"type":"Point","coordinates":[-67.66496950634586,46.16530943101146]}},{"type":"Feature","properties":{"name":"North Hartford","objectid":"3077386","urn":"271","min_occr_url":"http://dnr-mrn.gnb.ca/MineralOccurrence/default.aspx?componentID=5&urn=271","lon":"-67.65330999999999","commodities":"Mn, Mn","lat":"46.18335"},"geometry":{"type":"Point","coordinates":[-67.6533094905488,46.18335944415598]}},{"type":"Feature","properties":{"name":"South Hartford","objectid":"3077387","urn":"272","min_occr_url":"http://dnr-mrn.gnb.ca/MineralOccurrence/default.aspx?componentID=5&urn=272","lon":"-67.64498","commodities":"Mn","lat":"46.18336"},"geometry":{"type":"Point","coordinates":[-67.64497951626359,46.18336944544644]}},{"type":"Feature","properties":{"name":"Richmond Corner","objectid":"3077388","urn":"273","min_occr_url":"http://dnr-mrn.gnb.ca/MineralOccurrence/default.aspx?componentID=5&urn=273","lon":"-67.71330999999999","commodities":"Mn","lat":"46.131139999999995"},"geometry":{"type":"Point","coordinates":[-67.71330956563413,46.131149431156]}},{"type":"Feature","properties":{"name":"Sharpe Farm","objectid":"3077389","urn":"274","min_occr_url":"http://dnr-mrn.gnb.ca/MineralOccurrence/default.aspx?componentID=5&urn=274","lon":"-67.63136","commodities":"Mn","lat":"46.20086"},"geometry":{"type":"Point","coordinates":[-67.6313594525572,46.20086947795112]}},{"type":"Feature","properties":{"name":"Moody Hill &amp; Iron Ore Hill","objectid":"3077390","urn":"275","min_occr_url":"http://dnr-mrn.gnb.ca/MineralOccurrence/default.aspx?componentID=5&urn=275","lon":"-67.63886","commodities":"Mn","lat":"46.19669"},"geometry":{"type":"Point","coordinates":[-67.63885951083658,46.196699439034944]}},{"type":"Feature","properties":{"name":"West Beach Gold","objectid":"3077391","urn":"276","min_occr_url":"http://dnr-mrn.gnb.ca/MineralOccurrence/default.aspx?componentID=5&urn=276","lon":"-65.84691","commodities":"Ag, Au, Cu","lat":"45.22974"},"geometry":{"type":"Point","coordinates":[-65.84690878020142,45.22974932654668]}},{"type":"Feature","properties":{"name":"Wakefield- Area 2","objectid":"3077392","urn":"277","min_occr_url":"http://dnr-mrn.gnb.ca/MineralOccurrence/default.aspx?componentID=5&urn=277","lon":"-67.62496999999999","commodities":"Mn, Mn","lat":"46.248349999999995"},"geometry":{"type":"Point","coordinates":[-67.62496952487234,46.248359448484585]}},{"type":"Feature","properties":{"name":"Maple Hill- Area 1","objectid":"3077393","urn":"278","min_occr_url":"http://dnr-mrn.gnb.ca/MineralOccurrence/default.aspx?componentID=5&urn=278","lon":"-67.62635999999999","commodities":"Mn, Mn","lat":"46.230579999999996"},"geometry":{"type":"Point","coordinates":[-67.6263595140059,46.230589492876526]}},{"type":"Feature","properties":{"name":"Oak Mountain Iron","objectid":"3077394","urn":"279","min_occr_url":"http://dnr-mrn.gnb.ca/MineralOccurrence/default.aspx?componentID=5&urn=279","lon":"-67.66026","commodities":"Fe","lat":"46.00307"},"geometry":{"type":"Point","coordinates":[-67.66025948495864,46.00307940737777]}},{"type":"Feature","properties":{"name":"Wickham Iron","objectid":"3077395","urn":"280","min_occr_url":"http://dnr-mrn.gnb.ca/MineralOccurrence/default.aspx?componentID=5&urn=280","lon":"-67.66136999999999","commodities":"Fe","lat":"46.04613"},"geometry":{"type":"Point","coordinates":[-67.66136953510711,46.04613943063287]}},{"type":"Feature","properties":{"name":"Union Corner","objectid":"3077396","urn":"281","min_occr_url":"http://dnr-mrn.gnb.ca/MineralOccurrence/default.aspx?componentID=5&urn=281","lon":"-67.76164","commodities":"Fe, Mn","lat":"46.07141"},"geometry":{"type":"Point","coordinates":[-67.76163958000424,46.071419452347754]}},{"type":"Feature","properties":{"name":"Strachens Lake Brook East","objectid":"3077397","urn":"282","min_occr_url":"http://dnr-mrn.gnb.ca/MineralOccurrence/default.aspx?componentID=5&urn=282","lon":"-66.22497","commodities":"Pb, Zn","lat":"47.459179999999996"},"geometry":{"type":"Point","coordinates":[-66.2249690238849,47.459189672512586]}},{"type":"Feature","properties":{"name":"Strachens Lake Brook","objectid":"3077398","urn":"283","min_occr_url":"http://dnr-mrn.gnb.ca/MineralOccurrence/default.aspx?componentID=5&urn=283","lon":"-66.22997","commodities":"Cu, Pb, Zn","lat":"47.464459999999995"},"geometry":{"type":"Point","coordinates":[-66.2299691000662,47.464469708677235]}},{"type":"Feature","properties":{"name":"TV Tower Group","objectid":"3077399","urn":"284","min_occr_url":"http://dnr-mrn.gnb.ca/MineralOccurrence/default.aspx?componentID=5&urn=284","lon":"-66.40247","commodities":"Cu, Zn","lat":"47.456959999999995"},"geometry":{"type":"Point","coordinates":[-66.40246918467132,47.45696965252569]}},{"type":"Feature","properties":{"name":"Devils Elbow","objectid":"3077400","urn":"285","min_occr_url":"http://dnr-mrn.gnb.ca/MineralOccurrence/default.aspx?componentID=5&urn=285","lon":"-66.40164","commodities":"Cu, Zn","lat":"47.429739999999995"},"geometry":{"type":"Point","coordinates":[-66.40163908946325,47.42974968529485]}},{"type":"Feature","properties":{"name":"North Renous &quot;I&quot;","objectid":"3077401","urn":"286","min_occr_url":"http://dnr-mrn.gnb.ca/MineralOccurrence/default.aspx?componentID=5&urn=286","lon":"-65.84441","commodities":"Mn","lat":"46.804739999999995"},"geometry":{"type":"Point","coordinates":[-65.84440892131097,46.804749626340595]}},{"type":"Feature","properties":{"name":"Willett","objectid":"3077402","urn":"287","min_occr_url":"http://dnr-mrn.gnb.ca/MineralOccurrence/default.aspx?componentID=5&urn=287","lon":"-66.00468","commodities":"Ag, Cu, Pb, Zn","lat":"47.41446"},"geometry":{"type":"Point","coordinates":[-66.00467903621309,47.41446965602172]}},{"type":"Feature","properties":{"name":"Two And A Half Mile Brook","objectid":"3077403","urn":"288","min_occr_url":"http://dnr-mrn.gnb.ca/MineralOccurrence/default.aspx?componentID=5&urn=288","lon":"-66.85164","commodities":"Sn","lat":"46.5578"},"geometry":{"type":"Point","coordinates":[-66.85163928735035,46.55780951595216]}},{"type":"Feature","properties":{"name":"Tin Hill","objectid":"3077404","urn":"289","min_occr_url":"http://dnr-mrn.gnb.ca/MineralOccurrence/default.aspx?componentID=5&urn=289","lon":"-66.790892","commodities":"Sn","lat":"46.591041"},"geometry":{"type":"Point","coordinates":[-66.790891212115,46.59105049887927]}},{"type":"Feature","properties":{"name":"Ranger Brook","objectid":"3077405","urn":"290","min_occr_url":"http://dnr-mrn.gnb.ca/MineralOccurrence/default.aspx?componentID=5&urn=290","lon":"-66.86025","commodities":"Cu, Pb, Zn","lat":"46.50335"},"geometry":{"type":"Point","coordinates":[-66.8602492379171,46.50335951096429]}},{"type":"Feature","properties":{"name":"Macdonald Brook","objectid":"3077406","urn":"291","min_occr_url":"http://dnr-mrn.gnb.ca/MineralOccurrence/default.aspx?componentID=5&urn=291","lon":"-66.95524999999999","commodities":"Ba, W, Zn","lat":"46.54613"},"geometry":{"type":"Point","coordinates":[-66.9552492542394,46.5461395090487]}},{"type":"Feature","properties":{"name":"South Ridge Beryl/Moly","objectid":"3077407","urn":"292","min_occr_url":"http://dnr-mrn.gnb.ca/MineralOccurrence/default.aspx?componentID=5&urn=292","lon":"-66.82275","commodities":"Be, Mo","lat":"46.535019999999996"},"geometry":{"type":"Point","coordinates":[-66.8227492051316,46.53502948506657]}},{"type":"Feature","properties":{"name":"Clearwater Bk West Beryl N &amp; S","objectid":"3077408","urn":"293","min_occr_url":"http://dnr-mrn.gnb.ca/MineralOccurrence/default.aspx?componentID=5&urn=293","lon":"-66.7908","commodities":"Be","lat":"46.64474"},"geometry":{"type":"Point","coordinates":[-66.79079916249484,46.6447495491524]}},{"type":"Feature","properties":{"name":"Beaver Brook Lake Beryl","objectid":"3077409","urn":"294","min_occr_url":"http://dnr-mrn.gnb.ca/MineralOccurrence/default.aspx?componentID=5&urn=294","lon":"-66.92107","commodities":"Be","lat":"46.71947"},"geometry":{"type":"Point","coordinates":[-66.92106922247541,46.719479557791615]}},{"type":"Feature","properties":{"name":"South Burnthill Brook Beryl","objectid":"3077410","urn":"295","min_occr_url":"http://dnr-mrn.gnb.ca/MineralOccurrence/default.aspx?componentID=5&urn=295","lon":"-66.97330000000001","commodities":"Be","lat":"46.675019999999996"},"geometry":{"type":"Point","coordinates":[-66.97329922713287,46.67502951147996]}},{"type":"Feature","properties":{"name":"Harris Lake A","objectid":"3077411","urn":"296","min_occr_url":"http://dnr-mrn.gnb.ca/MineralOccurrence/default.aspx?componentID=5&urn=296","lon":"-66.53441","commodities":"Sn","lat":"46.70446"},"geometry":{"type":"Point","coordinates":[-66.53440913897455,46.70446955362383]}},{"type":"Feature","properties":{"name":"Harris Lake Uranium","objectid":"3077412","urn":"297","min_occr_url":"http://dnr-mrn.gnb.ca/MineralOccurrence/default.aspx?componentID=5&urn=297","lon":"-66.54081","commodities":"U","lat":"46.71669"},"geometry":{"type":"Point","coordinates":[-66.54080913176226,46.716699568320564]}},{"type":"Feature","properties":{"name":"Peaked Mountain","objectid":"3077413","urn":"298","min_occr_url":"http://dnr-mrn.gnb.ca/MineralOccurrence/default.aspx?componentID=5&urn=298","lon":"-66.51664","commodities":"Mo, Sn, W","lat":"46.73836"},"geometry":{"type":"Point","coordinates":[-66.51663912616208,46.73836956183073]}},{"type":"Feature","properties":{"name":"McBean Brook","objectid":"3077414","urn":"299","min_occr_url":"http://dnr-mrn.gnb.ca/MineralOccurrence/default.aspx?componentID=5&urn=299","lon":"-66.65357","commodities":"Ag, Pb, Zn","lat":"46.53197"},"geometry":{"type":"Point","coordinates":[-66.65356916209255,46.531979513281684]}},{"type":"Feature","properties":{"name":"Clevland Prospect","objectid":"3077415","urn":"300","min_occr_url":"http://dnr-mrn.gnb.ca/MineralOccurrence/default.aspx?componentID=5&urn=300","lon":"-66.5708","commodities":"Ag, Cu, Zn","lat":"46.66779"},"geometry":{"type":"Point","coordinates":[-66.57079908776731,46.667799590953244]}},{"type":"Feature","properties":{"name":"Todd Mountain Northwest","objectid":"3077416","urn":"301","min_occr_url":"http://dnr-mrn.gnb.ca/MineralOccurrence/default.aspx?componentID=5&urn=301","lon":"-66.70969","commodities":"Mo, W","lat":"46.54168"},"geometry":{"type":"Point","coordinates":[-66.7096891796891,46.541689549552785]}},{"type":"Feature","properties":{"name":"Todd Mountain","objectid":"3077417","urn":"302","min_occr_url":"http://dnr-mrn.gnb.ca/MineralOccurrence/default.aspx?componentID=5&urn=302","lon":"-66.69997","commodities":"Sn","lat":"46.54085"},"geometry":{"type":"Point","coordinates":[-66.69996919622457,46.54085954939754]}},{"type":"Feature","properties":{"name":"Head Of Little Dungarvon A","objectid":"3077418","urn":"303","min_occr_url":"http://dnr-mrn.gnb.ca/MineralOccurrence/default.aspx?componentID=5&urn=303","lon":"-66.62386","commodities":"Sn","lat":"46.67335"},"geometry":{"type":"Point","coordinates":[-66.6238591656448,46.67335958523885]}},{"type":"Feature","properties":{"name":"Peaked Mountain West","objectid":"3077419","urn":"304","min_occr_url":"http://dnr-mrn.gnb.ca/MineralOccurrence/default.aspx?componentID=5&urn=304","lon":"-66.54635999999999","commodities":"W","lat":"46.74362"},"geometry":{"type":"Point","coordinates":[-66.54635912581749,46.74362955622895]}},